CASE NUMBER,SR LOCATION,COUNTY,DISTRICT,NEIGHBORHOOD,TAX ID,TRASH QUAD,RECYCLE QUAD,TRASH DAY,HEAVY TRASH DAY,RECYCLE DAY,KEY MAP,MANAGEMENT DISTRICT,DEPARTMENT,DIVISION,SR TYPE,QUEUE,SLA,STATUS,SR CREATE DATE,DUE DATE,DATE CLOSED,OVERDUE,Title,x,y,LATITUDE,LONGITUDE,Channel Type
12323523-101003319128,Intersection 5000 MADALYN LN&5200 MILART ST,Harris County,D,OST / SOUTH UNION,,SE,SW,TUESDAY,3rd Thursday,Tuesday-a,534J,Greater Southeast MD,PWE Public Works Engineering,Street and Drainage,Pothole,ROWM_StreetMain,18.0,Closed,2019-01-01 13:20:10,2019-01-03 13:16:00,2019-01-01 13:21:40,-2.0,Pothole-101003319128,3131126.14114,13821665.7466,29.70383453,-95.3370591,Voice In
12323530-101003319139,Intersection 5000 MADALYN LN&5200 MILART ST,Harris County,D,OST / SOUTH UNION,,SE,SW,TUESDAY,3rd Thursday,TUESDAY-A,534J,Greater Southeast MD,PWE Public Works Engineering,Street and Drainage,Pothole,ROWM_StreetMain,18.0,Closed,2019-01-01 13:32:36,2019-01-03 13:31:00,2019-01-15 12:52:08,11.97,Pothole-101003319139,3131126.14114,13821665.7466,29.70383453,-95.3370591,Voice In
12323547-101003319205,Intersection 3300 GREENS RD&15800 MILNER RD,Harris County,B,IAH / AIRPORT AREA,,,,,,,374P,,PWE Public Works Engineering,Street and Drainage,Pothole,ROWM_StreetMain,18.0,Closed,2019-01-01 15:19:39,2019-01-03 15:19:39,2019-01-16 12:27:08,12.88,Pothole,,,29.95141789,-95.33676909,WEB
12323554-101003319230,"4612 ALLUM, HOUSTON TX 77045",HARRIS,K,CENTRAL SOUTHWEST,1400160010001,SW,SW,FRIDAY,4th Monday,FRIDAY-B,571H,Five Corners HCID #10B,PWE Public Works Engineering,Street and Drainage,Pothole,ROWM_StreetMain,18.0,Closed,2019-01-01 16:03:38,2019-01-03 16:03:38,2019-01-02 13:02:16,-1.13,Pothole-101003319230,3096545.13452,13797982.63321,29.64166817,-95.44820648,Voice In
12323568-101003319272,"1410 NEVADA, HOUSTON TX 77006",HARRIS,C,NEARTOWN - MONTROSE,0180300000015,NW,NE,MONDAY,1st Wednesday,MONDAY-A,492R,Montrose Management District,PWE Public Works Engineering,Street and Drainage,Pothole,ROWM_StreetMain,18.0,Closed,2019-01-01 17:02:48,2019-01-04 08:00:00,2019-01-16 11:42:09,12.15,Pothole,,,29.75160544,-95.39811197,WEB
12323572-101003319285,"10556 BENTLEY, HOUSTON TX 77093",HARRIS,B,EASTEX - JENSEN AREA,0690600040001,NE,NE,MONDAY,2nd Thursday,MONDAY-B,414X,Greater Northside MD,PWE Public Works Engineering,Street and Drainage,Pothole,ROWM_StreetMain,18.0,Closed,2019-01-01 17:47:45,2019-01-04 08:00:00,2019-01-02 11:02:15,-1.87,Pothole,,,29.86651343,-95.33504126,Unknown
12323576-101003319297,"7506 SANDLE, HOUSTON TX 77088",HARRIS,B,ACRES HOME,0162650550001,NW,NW,TUESDAY,4th Tuesday,TUESDAY-B,412T,,PWE Public Works Engineering,Street and Drainage,Pothole,ROWM_StreetMain,18.0,Closed,2019-01-01 18:29:23,2019-01-04 08:00:00,2019-01-02 13:02:16,-1.79,Pothole,,,29.86891648,-95.4357243,WEB
12323583-101003319322,Intersection 7400 CHASE ST&2500 E CROSSTIMBERS ST,Harris County,H,EASTEX - JENSEN AREA,,NE,NE,MONDAY,2nd Friday,MONDAY-B,454J,Greater Northside MD,PWE Public Works Engineering,Street and Drainage,Pothole,ROWM_StreetMain,18.0,Closed,2019-01-01 19:35:16,2019-01-04 08:00:00,2019-01-02 10:02:16,-1.92,Pothole-101003319322,3126762.77618,13866948.8752,29.82867759,-95.34634163,Voice In
12323587-101003319337,"9602 KINGSPOINT, HOUSTON TX 77089",HARRIS,D,SOUTH BELT / ELLINGTON,0450410000042,,,,,,576S,,PWE Public Works Engineering,Street and Drainage,Pothole,ROWM_StreetMain,18.0,Closed,2019-01-01 22:28:04,2019-01-04 08:00:00,2019-01-02 13:57:16,-1.75,Pothole,,,29.60837201,-95.23988776,WEB
12323600-101003319380,"1337 HYDE PARK, HOUSTON TX 77006",HARRIS,C,NEARTOWN - MONTROSE,1209090010011,,,,,,493N,Montrose Management District,PWE Public Works Engineering,Street and Drainage,Pothole,ROWM_StreetMain,18.0,Closed,2019-01-02 00:24:19,2019-01-03 09:24:19,2019-01-02 05:57:15,-1.14,Pothole - 324217,-95.39454,29.74701,29.74698008,-95.39436489,WAP
12323601-101003319381,"1901 S SHEPHERD, HOUSTON TX 77019",HARRIS,C,NEARTOWN - MONTROSE,0531490000005,NW,NE,MONDAY,1st Wednesday,MONDAY-A,492Q,Montrose Management District,PWE Public Works Engineering,Street and Drainage,Pothole,ROWM_StreetMain,18.0,Closed,2019-01-02 00:24:21,2019-01-03 09:24:21,2019-01-02 14:12:16,-0.8,Pothole - 324219,-95.41027,29.7491,29.74896031,-95.41030937,WAP
12323602-101003319383,"918 DART, HOUSTON TX 77007",HARRIS,H,WASHINGTON AVENUE COALITION / MEMORIAL P,0400200000027,,,,,,493G,,PWE Public Works Engineering,Street and Drainage,Pothole,ROWM_StreetMain,18.0,Closed,2019-01-02 00:24:23,2019-01-03 09:24:23,2019-01-02 14:52:16,-0.77,Pothole - 324221,-95.36554,29.76891,29.76954721,-95.36628415,WAP
12323610-101003319434,Intersection 5000 KIRBY DR&2600 NORTH BLVD,Harris County,C,UNIVERSITY PLACE,,,,,,,492Y,HCID #3 (Upper Kirby),PWE Public Works Engineering,Street and Drainage,Pothole,ROWM_StreetMain,18.0,Closed,2019-01-02 07:44:29,2019-01-03 16:44:28,2019-01-03 11:07:15,-0.23,Pothole-101003319434,3104984.8286,13829519.956940003,29.72764976,-95.41860967,Voice In
12323611-101003319435,"732 WAVERLY, HOUSTON TX 77007",HARRIS,C,GREATER HEIGHTS,0202620000035,NW,NE,THURSDAY,3rd Wednesday,THURSDAY-B,492D,,PWE Public Works Engineering,Street and Drainage,Pothole,ROWM_StreetMain,18.0,Closed,2019-01-02 07:45:06,2019-01-03 16:45:06,2019-01-03 08:27:16,-0.35,Pothole,,,29.7848387,-95.40404412,WEB
12323889-101003320717,"10900 RICHMOND, HOUSTON TX 77042",HARRIS,F,WESTCHASE,1127680000002,,,,,,489Y,Westchase MD,PWE Public Works Engineering,Street and Drainage,Pothole,ROWM_StreetMain,18.0,Closed,2019-01-02 16:26:10,2019-01-04 16:23:00,2019-01-03 09:32:16,-1.29,Pothole-101003320717,3057377.05636,13828442.16284,29.72861181,-95.5686471,SMS In
12323899-101003320787,"3013 FOUNTAIN VIEW, HOUSTON TX 77057",HARRIS,J,MID WEST,0780690020020,SW,SW,MONDAY,1st Friday,MONDAY-A,491X,,PWE Public Works Engineering,Street and Drainage,Pothole,ROWM_StreetMain,18.0,Closed,2019-01-02 16:59:15,2019-01-04 16:59:15,2019-01-03 10:42:15,-1.26,Pothole-101003320787,3084222.65391,13831165.47531,29.73390518,-95.48384161,Voice In
12323901-101003320794,"5814 W RIDGECREEK, HOUSTON TX 77053",FORT BEND,K,FORT BEND HOUSTON,6200010071900907,SW,SW,FRIDAY,4th Wednesday,FRIDAY-A,571X,,PWE Public Works Engineering,Street and Drainage,Pothole,ROWM_StreetMain,18.0,Closed,2019-01-02 17:03:07,2019-01-07 08:00:00,2019-01-03 09:57:15,-3.92,Pothole,,,29.59640466,-95.47421436,WEB
12323902-101003320796,"4627 GALESBURG, HOUSTON TX 77051",HARRIS,D,SUNNYSIDE,0720940020028,SE,SE,FRIDAY,4th Thursday,FRIDAY-A,533Z,HCID #10-A,PWE Public Works Engineering,Street and Drainage,Pothole,ROWM_StreetMain,18.0,Closed,2019-01-02 17:05:04,2019-01-07 08:00:00,2019-01-03 11:57:16,-3.84,Pothole,,,29.66621277,-95.35713002,WEB
12323908-101003320811,Intersection 7700 KATY FWY&1000 SILBER RD,,A,SPRING BRANCH EAST,,,,,,,491C,Spring Branch MD,PWE Public Works Engineering,Street and Drainage,Pothole,ROWM_StreetMain,18.0,Closed,2019-01-02 17:20:09,2019-01-07 08:00:00,2019-01-03 08:32:16,-3.98,Pothole-101003320811,3088689.33428,13849810.89635,,,Voice In
12323910-101003320817,"3807 BELLFORT, HOUSTON TX 77051",HARRIS,D,SUNNYSIDE,0511710930024,SE,SE,FRIDAY,4th Thursday,FRIDAY-A,533Y,HCID #10-A,PWE Public Works Engineering,Street and Drainage,Pothole,ROWM_StreetMain,18.0,Closed,2019-01-02 17:23:36,2019-01-07 08:00:00,2019-01-03 10:52:15,-3.88,Pothole,,,29.66978045,-95.36832354,Unknown
12323912-101003320828,"4012 BELLFORT, HOUSTON TX 77051",HARRIS,D,SUNNYSIDE,0641680210002,SE,SE,FRIDAY,4th Thursday,FRIDAY-A,533Y,HCID #10-A,PWE Public Works Engineering,Street and Drainage,Pothole,ROWM_StreetMain,18.0,Closed,2019-01-02 17:29:44,2019-01-07 08:00:00,2019-01-03 10:22:16,-3.9,Pothole,,,29.66916585,-95.36763881,Unknown
12323188-101003320849,Intersection 3200 FOUNTAIN VIEW DR&6000 RICHMOND AVE,,J,MID WEST,,,,,,,491X,Harris County PID#2,PWE Public Works Engineering,Street and Drainage,Pothole,ROWM_StreetMain,18.0,Closed,2019-01-02 17:44:59,2019-01-07 08:00:00,2019-01-02 17:45:40,-4.59,Pothole-101003320849,3084132.92509,13830290.7428,,,Voice In
12323946-101003320927,Intersection 1600 HOLMES RD&9400 KIRBY DR,,K,CENTRAL SOUTHWEST,,,,,,,532Y,,PWE Public Works Engineering,Street and Drainage,Pothole,ROWM_StreetMain,18.0,Closed,2019-01-02 19:47:52,2019-01-07 08:00:00,2019-01-03 09:32:16,-3.94,Pothole-101003320927,3107412.66364,13807000.505260002,,,Voice In
12323977-101003320995,"3500 CRAWFORD, HOUSTON TX 77004",HARRIS,D,MIDTOWN,1291160010001,NW,NE,MONDAY,1st Wednesday,MONDAY-A,493T,Midtown MD,PWE Public Works Engineering,Street and Drainage,Pothole,ROWM_StreetMain,18.0,Closed,2019-01-02 23:00:50,2019-01-07 08:00:00,2019-01-03 08:42:16,-3.97,Pothole,,,29.73612678,-95.37404986,Unknown
12323978-101003320996,"808 PEASE, HOUSTON TX 77002",HARRIS,I,DOWNTOWN,1315560010001,,,,,,493Q,Houston Downtown,PWE Public Works Engineering,Street and Drainage,Pothole,ROWM_StreetMain,18.0,Closed,2019-01-02 23:03:41,2019-01-07 08:00:00,2019-01-17 08:12:08,10.01,Pothole,,,29.7523639,-95.37054068,Unknown
12323980-101003321001,"2120 EL PASEO, HOUSTON TX 77054",HARRIS,K,ASTRODOME AREA,1150040070006,,,,,,533N,,PWE Public Works Engineering,Street and Drainage,Pothole,ROWM_StreetMain,18.0,Closed,2019-01-02 23:16:13,2019-01-07 08:00:00,2019-01-03 09:07:15,-3.95,Pothole,,,29.68774308,-95.39212478,Unknown
12323989-101003321023,"2319 STANFORD, HOUSTON TX 77006",HARRIS,C,NEARTOWN - MONTROSE,0140590000005,NW,NE,MONDAY,1st Wednesday,MONDAY-A,493N,Montrose Management District,PWE Public Works Engineering,Street and Drainage,Pothole,ROWM_StreetMain,18.0,Closed,2019-01-02 23:57:37,2019-01-07 08:00:00,2019-01-03 12:42:17,-3.8,Pothole - 324317,-95.38884,29.74815,29.74827477,-95.38873861,WAP
12323994-101003321040,"411 W ALABAMA, HOUSTON TX 77006",HARRIS,C,NEARTOWN - MONTROSE,0082690000002,NW,NW,MONDAY,1st Wednesday,MONDAY-A,493S,Montrose Management District,PWE Public Works Engineering,Street and Drainage,Pothole,ROWM_StreetMain,18.0,Closed,2019-01-02 23:58:01,2019-01-07 08:00:00,2019-01-03 08:32:16,-3.98,Pothole - 324344,-95.38512,29.73889,29.73866928,-95.38510937,WAP
12324001-101003321059,"1201 MCDUFFIE, HOUSTON TX 77019",HARRIS,C,NEARTOWN - MONTROSE,1143360010003,NW,NE,MONDAY,1st Wednesday,MONDAY-A,492R,Montrose Management District,PWE Public Works Engineering,Street and Drainage,Pothole,ROWM_StreetMain,18.0,Closed,2019-01-03 01:23:07,2019-01-04 10:23:07,2019-01-03 13:32:16,-0.87,Pothole-101003321059,3108186.91865,13839483.59187,29.75476705,-95.40756113,Voice In
12324002-101003321062,Intersection 6000 FAIRDALE LN&3100 FOUNTAIN VIEW DR,Harris County,J,MID WEST,,,,,,,491X,,PWE Public Works Engineering,Street and Drainage,Pothole,ROWM_StreetMain,18.0,Closed,2019-01-03 01:27:36,2019-01-04 10:27:36,2019-01-03 10:07:16,-1.01,Pothole,,,29.73305516,-95.48423765,WEB
12324003-101003321065,"1701 UPLAND, HOUSTON 77043",HARRIS,A,SPRING BRANCH WEST,1155990670014,NW,NW,FRIDAY,4th Wednesday,FRIDAY-A,449X,,PWE Public Works Engineering,Street and Drainage,Pothole,ROWM_StreetMain,18.0,Closed,2019-01-03 02:01:16,2019-01-04 11:01:16,2019-01-03 08:52:16,-1.09,Pothole - 324357,-95.57662,29.79447,29.79446091,-95.57679635,WAP
12324018-101003321150,Intersection 6700 LONG POINT RD&1800 SILBER RD,,A,SPRING BRANCH EAST,,NW,NE,FRIDAY,4th Wednesday,,451U,Spring Branch MD,PWE Public Works Engineering,Street and Drainage,Pothole,ROWM_StreetMain,18.0,Closed,2019-01-03 07:26:51,2019-01-04 16:24:00,2019-01-03 13:12:15,-1.13,Pothole-101003321150,3088416.9431,13856394.470780002,,,Voice In
12324027-101003321206,"2001 A PORTSMOUTH, HOUSTON TX 77098",HARRIS,C,NEARTOWN - MONTROSE,1295580010002,NW,NE,MONDAY,1st Wednesday,MONDAY-A,492Z,Montrose Management District,PWE Public Works Engineering,Street and Drainage,Pothole,ROWM_StreetMain,18.0,Closed,2019-01-03 08:09:38,2019-01-07 08:09:38,2019-01-03 13:42:16,-3.77,Pothole,,,29.7331975,-95.40970166,WEB
12324029-101003321221,"110 SABINE, HOUSTON TX 77007",HARRIS,H,WASHINGTON AVENUE COALITION / MEMORIAL P,0161970000011,,,,,,493K,Houston Downtown,PWE Public Works Engineering,Street and Drainage,Pothole,ROWM_StreetMain,18.0,Closed,2019-01-03 08:15:31,2019-01-07 08:15:31,2019-01-03 08:37:16,-3.98,Pothole,,,29.76300467,-95.37502556,Unknown
12324076-101003321472,"5507 SAN JACINTO, HOUSTON TX 77004",HARRIS,D,MUSEUM PARK,0391640000009,SW,SE,TUESDAY,3rd Monday,TUESDAY-B,493W,Greater Southeast MD,PWE Public Works Engineering,Street and Drainage,Pothole,ROWM_StreetMain,18.0,Closed,2019-01-03 09:39:59,2019-01-07 09:39:59,2019-01-03 13:12:15,-3.85,Pothole-101003321472,3114937.24537,13828907.32103,29.72512412,-95.38732622,Voice In
12324116-101003321623,"1120 SILBER, HOUSTON TX 77055",HARRIS,A,SPRING BRANCH EAST,0451750020346,,,,,,451Y,Spring Branch MD,PWE Public Works Engineering,Street and Drainage,Pothole,ROWM_StreetMain,18.0,Closed,2019-01-03 10:32:50,2019-01-07 10:32:49,2019-01-04 10:42:16,-2.99,Pothole-101003321623,3088723.88441,13851776.605340002,29.79018721,-95.46770349,Voice In
12324135-101003321751,"4601 KELVIN, HOUSTON TX 77005",HARRIS,C,UNIVERSITY PLACE,0370030000001,SW,SE,TUESDAY,3rd Monday,TUESDAY-B,532C,,PWE Public Works Engineering,Street and Drainage,Pothole,ROWM_StreetMain,18.0,Closed,2019-01-03 11:10:51,2019-01-07 11:10:51,2019-01-03 13:07:17,-3.92,Pothole,,,29.72453346,-95.41660436,WEB
12324166-101003321889,"1607 HUTCHINS, HOUSTON TX 77003",HARRIS,I,DOWNTOWN,0020560000007,SE,SE,MONDAY,1st Friday,MONDAY-A,493V,East Downtown MD,PWE Public Works Engineering,Street and Drainage,Pothole,ROWM_StreetMain,18.0,Closed,2019-01-03 11:52:23,2019-01-07 11:52:23,2019-01-03 14:27:16,-3.89,Pothole-101003321889,3123943.10466,13836737.04093,29.7458777,-95.358197,Voice In
12324173-101003321916,"7008 AVENUE E, HOUSTON TX 77011",HARRIS,I,MAGNOLIA PARK,0390170000032,SE,SE,MONDAY,1st Thursday,MONDAY-A,494V,East End MD,PWE Public Works Engineering,Street and Drainage,Pothole,ROWM_StreetMain,18.0,Closed,2019-01-03 12:01:04,2019-01-07 12:01:04,2019-01-03 15:02:16,-3.87,Pothole-101003321916,3142174.17974,13834486.43553,29.73811832,-95.30099738,Voice In
12324177-101003321935,"7002 AVENUE E, HOUSTON TX 77011",HARRIS,I,MAGNOLIA PARK,0390170000030,SE,SE,MONDAY,1st Thursday,MONDAY-A,494V,East End MD,PWE Public Works Engineering,Street and Drainage,Pothole,ROWM_StreetMain,18.0,Closed,2019-01-03 12:03:54,2019-01-07 12:03:54,2019-01-03 12:32:16,-3.98,Pothole-101003321935,3142127.00267,13834501.734380003,29.73816448,-95.30114445,Voice In
12324218-101003322092,"5814 W RIDGECREEK, HOUSTON TX 77053",FORT BEND,K,FORT BEND HOUSTON,6200010071900907,SW,SW,FRIDAY,4th Wednesday,FRIDAY-A,571X,,PWE Public Works Engineering,Street and Drainage,Pothole,ROWM_StreetMain,18.0,Closed,2019-01-03 12:51:12,2019-01-07 12:51:12,2019-01-03 13:22:16,-3.98,Pothole,,,29.59640466,-95.47421436,WEB
12324231-101003322129,"3800 S SHEPHERD, HOUSTON TX 77098",HARRIS,C,GREENWAY / UPPER KIRBY AREA,0540610050003,NW,SW,MONDAY,1st Wednesday,MONDAY-A,492Y,HCID #3 (Upper Kirby),PWE Public Works Engineering,Street and Drainage,Pothole,ROWM_StreetMain,18.0,Closed,2019-01-03 13:01:16,2019-01-07 13:01:16,2019-01-04 14:02:16,-2.96,Pothole - 324398,-95.41058,29.73257,29.73243832,-95.41084658,WAP
12324233-101003322131,"14737 MEMORIAL, HOUSTON TX 77029",HARRIS,G,MEMORIAL,1002710000011,,,,,,488H,,PWE Public Works Engineering,Street and Drainage,Pothole,ROWM_StreetMain,18.0,Closed,2019-01-03 13:01:21,2019-01-07 13:01:21,2019-01-04 11:12:15,-3.08,Pothole - 324399,-95.61,29.76981,29.76989558,-95.61013951,WAP
12324239-101003322158,Intersection 4400 W AIRPORT BLVD&4500 ALLUM RD&12800 HIRAM CLARKE RD,,K,CENTRAL SOUTHWEST,,,,,,Friday-b,571H,Five Corners HCID #10B,PWE Public Works Engineering,Street and Drainage,Pothole,ROWM_StreetMain,18.0,Closed,2019-01-03 13:12:43,2019-01-07 13:12:43,2019-01-04 10:12:16,-3.13,Pothole-101003322158,3097133.39089,13797799.37636,,,Voice In
12324242-101003322171,"5418 HUISACHE, HOUSTON TX 77081",HARRIS,J,GULFTON,0370550170038,SW,SE,TUESDAY,1st Friday,TUESDAY-B,531K,,PWE Public Works Engineering,Street and Drainage,Pothole,ROWM_StreetMain,18.0,Closed,2019-01-03 13:16:14,2019-01-07 13:16:14,2019-01-04 13:07:15,-3.01,Pothole - 324400,-95.47605,29.70024,29.70043959,-95.47597246,WAP
12324250-101003322208,Intersection 4700 FIRNAT ST&9200 LAVENDER ST,Harris County,B,TRINITY / HOUSTON GARDENS,,NE,NW,TUESDAY,2nd Tuesday,TUESDAY-A,454G,,PWE Public Works Engineering,Street and Drainage,Pothole,ROWM_StreetMain,18.0,Closed,2019-01-03 13:30:28,2019-01-07 13:30:00,2019-01-04 09:12:16,-3.18,Pothole-101003322208,3134421.43803,13873043.9844,29.84477049,-95.32159427,e-mail In
12322191-101003322218,Intersection 8622 MEMORIAL DR&350 N POST OAK LN,,G,GREATER UPTOWN,,,,,,,491H,,PWE Public Works Engineering,Street and Drainage,Pothole,ROWM_StreetMain,18.0,Closed,2019-01-03 13:35:56,2019-01-07 13:35:55,2019-01-03 13:36:05,-4.0,Pothole,,,,,Unknown
12324246-101003322226,Intersection 0 W LOOP FWY N&8600 MEMORIAL DR&100 N POST OAK RD,,G,GREATER UPTOWN,,,,,,,491H,,PWE Public Works Engineering,Street and Drainage,Pothole,ROWM_StreetMain,18.0,Closed,2019-01-03 13:39:43,2019-01-07 13:39:43,2019-01-03 13:39:50,-4.0,Pothole,,,,,Unknown
12324305-101003322420,"8426 ARROWHEAD, HOUSTON TX 77075",HARRIS,D,GREATER HOBBY AREA,0772790050017,SE,SE,FRIDAY,4th Monday,FRIDAY-B,575U,,PWE Public Works Engineering,Street and Drainage,Pothole,ROWM_StreetMain,18.0,Closed,2019-01-03 14:51:22,2019-01-07 14:51:22,2019-01-04 13:22:16,-3.06,Pothole-101003322420,3154171.7673,13789742.59063,29.6140837,-95.26770961,Voice In
12324358-101003322786,Intersection 1500 EDWARDS ST&1400 HOUSTON AVE,,H,WASHINGTON AVENUE COALITION / MEMORIAL P,,,,,,non active,493G,,PWE Public Works Engineering,Street and Drainage,Pothole,ROWM_StreetMain,18.0,Closed,2019-01-03 16:47:03,2019-01-07 16:47:03,2019-01-04 10:22:16,-3.27,Pothole,,,,,Unknown
12324362-101003322797,"1755 FEDERAL, UNINCORPORATED TX 77015",HARRIS,,,1167500010001,,,,,,496R,,PWE Public Works Engineering,Street and Drainage,Pothole,ROWM_StreetMain,18.0,Closed,2019-01-03 16:50:49,2019-01-07 16:50:49,2019-01-04 09:02:16,-3.33,Pothole-101003322797,3171689.81691,13841750.82225,29.75548595,-95.2072968,Voice In
12324394-101003322895,"5330 E OREM, HOUSTON TX 77048",HARRIS,D,SOUTH ACRES / CRESTMONT PARK,1045430000012,SE,SE,FRIDAY,4th Tuesday,FRIDAY-B,574N,,PWE Public Works Engineering,Street and Drainage,Pothole,ROWM_StreetMain,18.0,Closed,2019-01-03 18:01:16,2019-01-08 08:00:00,2019-01-04 12:07:15,-3.83,Pothole-101003322895,3130199.1594,13793169.775379997,29.62558657,-95.34278431,Voice In
12324400-101003322940,"1118 SILBER, HOUSTON TX 77055",HARRIS,A,SPRING BRANCH EAST,1290850010002,,,,,,491C,Spring Branch MD,PWE Public Works Engineering,Street and Drainage,Pothole,ROWM_StreetMain,18.0,Closed,2019-01-03 19:07:50,2019-01-08 08:00:00,2019-01-04 10:32:16,-3.89,Pothole-101003322940,3089413.45292,13851180.75024,29.78849209,-95.46558723,Voice In
12324408-101003322966,Intersection 12000 BUFFALO SPEEDWAY&800 HOLMES RD,Harris County,K,SOUTH MAIN,,,,,,,532X,,PWE Public Works Engineering,Street and Drainage,Pothole,ROWM_StreetMain,18.0,Closed,2019-01-03 19:45:54,2019-01-08 08:00:00,2019-01-04 12:02:15,-3.83,Pothole-101003322966,3103276.94619,13805438.65701,29.66159948,-95.42630652,Voice In
12324358-101003322985,Intersection 1500 EDWARDS ST&1400 HOUSTON AVE,,H,WASHINGTON AVENUE COALITION / MEMORIAL P,,,,,,non active,493G,,PWE Public Works Engineering,Street and Drainage,Pothole,ROWM_StreetMain,18.0,Closed,2019-01-03 20:38:57,2019-01-08 08:00:00,2019-01-03 20:39:04,-4.47,Pothole,,,,,Unknown
12324426-101003323020,Intersection 12600 ALPINE RIDGE WAY&1800 DIXIE FARM RD,,D,SOUTH BELT / ELLINGTON,,,,,,,617E,,PWE Public Works Engineering,Street and Drainage,Pothole,ROWM_StreetMain,18.0,Closed,2019-01-03 22:28:34,2019-01-08 08:00:00,2019-01-04 13:52:15,-3.76,Pothole,,,,,Unknown
12324447-101003323081,Intersection 1500 CAPITOL ST&700 LA BRANCH ST,,I,DOWNTOWN,,,,,,,493R,Houston Downtown,PWE Public Works Engineering,Street and Drainage,Pothole,ROWM_StreetMain,18.0,Closed,2019-01-04 07:21:07,2019-01-07 16:21:07,2019-01-04 15:02:16,-3.05,Pothole,,,,,WEB
12324549-101003323517,"6600 LONG POINT, HOUSTON TX 77055",HARRIS,A,SPRING BRANCH EAST,0421300010090,,,,,,451U,Spring Branch MD,PWE Public Works Engineering,Street and Drainage,Pothole,ROWM_StreetMain,18.0,Closed,2019-01-04 11:15:27,2019-01-08 11:15:27,2019-01-07 06:57:08,-1.18,Pothole-101003323517,3088986.9249,13856894.11184,29.80423198,-95.46638717,Voice In
12324610-101003323748,"15126 TRINITY MEADOW, HOUSTON TX 77489",FORT BEND,K,FORT BEND HOUSTON,2630020020480907,SW,SW,THURSDAY,3rd Thursday,THURSDAY-A,570U,,PWE Public Works Engineering,Street and Drainage,Pothole,ROWM_StreetMain,18.0,Closed,2019-01-04 12:45:22,2019-01-08 12:45:21,2019-01-07 10:07:09,-1.11,Pothole-101003323748,3077947.56148,13784711.57379,29.6067279,-95.5079755,Voice In
12324695-101003324122,Intersection 14000 BEAMER RD&2400 DIXIE FARM RD,Harris County,,,,,,,,,616M,,PWE Public Works Engineering,Street and Drainage,Pothole,ROWM_StreetMain,18.0,Closed,2019-01-04 15:15:13,2019-01-08 15:15:13,2019-01-07 13:12:11,-1.09,Pothole,,,29.5731278,-95.19914007,Unknown
12324699-101003324141,"6826 KEATS, HOUSTON TX 77085",FORT BEND,K,FORT BEND HOUSTON,7150000062610907,SW,SW,FRIDAY,3rd Friday,FRIDAY-A,571S,,PWE Public Works Engineering,Street and Drainage,Pothole,ROWM_StreetMain,18.0,Closed,2019-01-04 15:21:00,2019-01-08 15:21:00,2019-01-07 10:27:08,-1.2,Pothole-101003324141,3083808.69542,13786316.13193,29.61065614,-95.48938687,Voice In
12324748-101003324402,Intersection 7600 N SHEPHERD DR&610 VICTORY DR,,B,NORTHSIDE/NORTHLINE,,NW,,TUESDAY,,,412U,,PWE Public Works Engineering,Street and Drainage,Pothole,ROWM_StreetMain,18.0,Closed,2019-01-04 16:51:38,2019-01-08 16:51:38,2019-01-07 11:22:08,-1.23,Pothole-101003324402,3105288.70299,13881516.56161,,,Voice In
101003324490,"6714 BRITTMOORE, HOUSTON TX 77041",HARRIS,A,CARVERDALE,1159040040002,,,,,,409U,,PWE Public Works Engineering,Street and Drainage,Pothole,ROWM_StreetMain,18.0,Closed,2019-01-04 17:48:48,2019-01-09 08:00:00,2019-01-07 11:21:48,-1.86,Pothole,,,29.86781852,-95.56869736,Voice In
12324771-101003324491,"6714 BRITTMOORE, HOUSTON TX 77041",HARRIS,A,CARVERDALE,1159040040002,,,,,,409U,,PWE Public Works Engineering,Street and Drainage,Pothole,ROWM_StreetMain,18.0,Closed,2019-01-04 17:49:29,2019-01-09 08:00:00,2019-01-07 11:17:08,-1.86,Pothole-101003324491,3055876.11973,13879040.96289,29.86781852,-95.56869736,Voice In
12324776-101003324512,Intersection 300 BUOY RD&15842 EASTCAPE DR,Harris County,E,CLEAR LAKE,,,,,,,618N,,PWE Public Works Engineering,Street and Drainage,Pothole,ROWM_StreetMain,18.0,Closed,2019-01-04 18:05:54,2019-01-09 08:00:00,2019-01-14 13:57:09,5.25,Pothole,,,29.55605214,-95.14142168,Unknown
12324786-101003324537,Intersection 5900 S BRAESWOOD BLVD&9600 HILLCROFT AVE,,C,MEYERLAND AREA,,,,,,Tuesday-b,531S,HCID #5 (Brays Oaks),PWE Public Works Engineering,Street and Drainage,Pothole,ROWM_StreetMain,18.0,Closed,2019-01-04 18:30:28,2019-01-09 08:00:00,2019-01-07 11:27:09,-1.86,Pothole,,,,,WEB
12319053-101003324542,Intersection 10500 DODSON ST&3600 SAUNDERS RD,Harris County,B,EASTEX - JENSEN AREA,,,,,,,414X,Greater Northside MD,PWE Public Works Engineering,Street and Drainage,Pothole,ROWM_StreetMain,18.0,Closed,2019-01-04 18:34:24,2019-01-09 08:00:00,2019-01-04 18:34:30,-4.56,Pothole,,,29.86440653,-95.33123022,Unknown
12324804-101003324634,Intersection 5700 HICKORY VILLAGE DR&2100 MILLS BRANCH DR&5700 RIVERCHASE VILLAGE DR,Harris County,E,KINGWOOD AREA,,,,,,,297V,,PWE Public Works Engineering,Street and Drainage,Pothole,ROWM_StreetMain,18.0,Closed,2019-01-04 21:15:30,2019-01-09 08:00:00,2019-01-07 10:02:09,-1.92,Pothole,,,30.06544093,-95.16205088,Unknown
12324813-101003324663,Intersection 2100 BROADWAY ST&8000 BRUMBLAY ST,,I,PECAN PARK,,,,,,,535F,East End MD,PWE Public Works Engineering,Street and Drainage,Pothole,ROWM_StreetMain,18.0,Closed,2019-01-04 23:10:51,2019-01-09 08:00:00,2019-01-07 12:07:08,-1.83,Pothole-101003324663,3149791.5441,13823816.53889,,,Voice In
12324816-101003324679,"1202 SHEPHERD, HOUSTON TX 77007",HARRIS,C,WASHINGTON AVENUE COALITION / MEMORIAL P,1374920010001,NW,NW,MONDAY,1st Wednesday,MONDAY-A,492H,,PWE Public Works Engineering,Street and Drainage,Pothole,ROWM_StreetMain,18.0,Closed,2019-01-05 04:28:36,2019-01-09 08:00:00,2019-01-07 13:17:09,-1.78,Pothole,,,29.77215237,-95.40924931,Unknown
12324817-101003324680,"1112 SHEPHERD, HOUSTON TX 77007",HARRIS,C,WASHINGTON AVENUE COALITION / MEMORIAL P,0072430000004,NW,NW,MONDAY,1st Wednesday,MONDAY-A,492H,,PWE Public Works Engineering,Street and Drainage,Pothole,ROWM_StreetMain,18.0,Closed,2019-01-05 04:31:26,2019-01-09 08:00:00,2019-01-07 05:47:08,-2.09,Pothole,,,29.77142822,-95.40916682,Unknown
12324818-101003324682,"920 WAKEFIELD, HOUSTON TX 77018",HARRIS,C,CENTRAL NORTHWEST,0630630000038,NW,NE,TUESDAY,3rd Thursday,TUESDAY-B,452Q,,PWE Public Works Engineering,Street and Drainage,Pothole,ROWM_StreetMain,18.0,Closed,2019-01-05 04:44:59,2019-01-09 08:00:00,2019-01-07 11:22:08,-1.86,Pothole,,,29.82193517,-95.42156998,Unknown
12323298-101003324733,Intersection 2 HEIGHTS BLVD&100 S HEIGHTS BLVD&3700 WASHINGTON AVE,,H,WASHINGTON AVENUE COALITION / MEMORIAL P,,,,,,,493E,,PWE Public Works Engineering,Street and Drainage,Pothole,ROWM_StreetMain,18.0,Closed,2019-01-05 09:03:30,2019-01-09 08:00:00,2019-01-05 09:03:40,-3.96,Pothole,,,,,WEB
12324862-101003324849,"12503 ALMEDA GENOA, HOUSTON TX 77034",HARRIS,E,SOUTH BELT / ELLINGTON,0151030890035,SE,SW,THURSDAY,2nd Tuesday,THURSDAY-B,576R,,PWE Public Works Engineering,Street and Drainage,Pothole,ROWM_StreetMain,18.0,Closed,2019-01-05 11:15:55,2019-01-09 08:00:00,2019-01-07 14:52:09,-1.71,Pothole-101003324849,3173867.21314,13793607.50383,29.62296442,-95.20536028,Voice In
12324894-101003324959,"3505 S DAIRY ASHFORD, HOUSTON TX 77082",HARRIS,F,ELDRIDGE / WEST OAKS,1164520000001,,,,,,488Z,,PWE Public Works Engineering,Street and Drainage,Pothole,ROWM_StreetMain,18.0,Closed,2019-01-05 13:19:43,2019-01-09 08:00:00,2019-01-07 12:47:08,-1.8,Pothole-101003324959,3046101.53232,13825996.47055,29.72279385,-95.60438303,Voice In
12324897-101003324965,Intersection 12800 W HOUSTON CENTER BLVD&12100 WESTPARK DR,,F,WESTCHASE,,,,,,,489W,,PWE Public Works Engineering,Street and Drainage,Pothole,ROWM_StreetMain,18.0,Closed,2019-01-05 13:24:56,2019-01-09 08:00:00,2019-01-07 13:47:08,-1.76,Pothole-101003324965,3049887.8338,13826725.41988,,,Voice In
12324907-101003325007,"1002 LEHMAN, HOUSTON TX 77018",HARRIS,C,CENTRAL NORTHWEST,0982310000007,NW,NE,TUESDAY,3rd Thursday,TUESDAY-B,452G,,PWE Public Works Engineering,Street and Drainage,Pothole,ROWM_StreetMain,18.0,Closed,2019-01-05 14:14:55,2019-01-09 08:00:00,2019-01-07 14:37:17,-1.72,Pothole,,,29.83887472,-95.42071345,WEB
12324919-101003325026,"11807 FLUSHING MEADOWS, HOUSTON TX 77089",HARRIS,D,SOUTH BELT / ELLINGTON,1041700000023,SE,SE,THURSDAY,2nd Thursday,THURSDAY-B,616D,,PWE Public Works Engineering,Street and Drainage,Pothole,ROWM_StreetMain,18.0,Closed,2019-01-05 14:50:39,2019-01-09 08:00:00,2019-01-22 06:46:52,12.95,Pothole,,,29.5939694,-95.19934855,WEB
12324920-101003325028,"11811 FLUSHING MEADOWS, HOUSTON TX 77089",HARRIS,D,SOUTH BELT / ELLINGTON,1041700000022,SE,SE,THURSDAY,2nd Thursday,THURSDAY-B,616D,,PWE Public Works Engineering,Street and Drainage,Pothole,ROWM_StreetMain,18.0,Closed,2019-01-05 14:53:12,2019-01-09 08:00:00,2019-01-07 05:37:08,-2.1,Pothole,,,29.59393381,-95.19913841,WEB
12324924-101003325032,"12806 GOTHAM, HOUSTON TX 77089",HARRIS,D,SOUTH BELT / ELLINGTON,1041700000010,SE,SE,THURSDAY,2nd Thursday,THURSDAY-B,616D,,PWE Public Works Engineering,Street and Drainage,Pothole,ROWM_StreetMain,18.0,Closed,2019-01-05 14:58:22,2019-01-09 08:00:00,2019-01-07 11:27:08,-1.86,Pothole,,,29.59259971,-95.19762415,WEB
12324930-101003325060,"5517 GLENMONT, HOUSTON TX 77081",HARRIS,J,GULFTON,0370590240056,,,,,,531B,,PWE Public Works Engineering,Street and Drainage,Pothole,ROWM_StreetMain,18.0,Closed,2019-01-05 16:11:20,2019-01-09 08:00:00,2019-01-07 13:47:08,-1.76,Pothole,,,29.71906722,-95.47767,WEB
12324580-101003325127,Intersection 8600 W FM 1960 RD&9000 MILLS RD,,A,WILLOWBROOK,,,,,,,369M,,PWE Public Works Engineering,Street and Drainage,Pothole,ROWM_StreetMain,18.0,Closed,2019-01-05 18:27:57,2019-01-09 08:00:00,2019-01-05 18:28:06,-3.56,Pothole,,,,,WEB
12324959-101003325158,Intersection 700 E 10TH 1/2 ST&1050 BEVERLY ST,Harris County,C,GREATER HEIGHTS,,NW,NE,THURSDAY,3rd Wednesday,THURSDAY-B,493A,,PWE Public Works Engineering,Street and Drainage,Pothole,ROWM_StreetMain,18.0,Closed,2019-01-05 20:08:38,2019-01-09 08:00:00,2019-01-07 13:22:08,-1.78,Pothole,,,29.78987506,-95.38993847,WEB
12324963-101003325199,Intersection 4800 CENTER ST&1100 SHEPHERD DR,Harris County,C,WASHINGTON AVENUE COALITION / MEMORIAL P,,NW,NW,MONDAY,1st Wednesday,MONDAY-A,492H,,PWE Public Works Engineering,Street and Drainage,Pothole,ROWM_StreetMain,18.0,Closed,2019-01-06 04:00:58,2019-01-09 08:00:00,2019-01-07 11:32:08,-1.85,Pothole,,,29.77119641,-95.40948482,Unknown
12324973-101003325274,"1338 CHESHIRE, HOUSTON TX 77018",HARRIS,C,CENTRAL NORTHWEST,0731000150051,NW,NE,TUESDAY,3rd Thursday,TUESDAY-B,452F,,PWE Public Works Engineering,Street and Drainage,Pothole,ROWM_StreetMain,18.0,Closed,2019-01-06 09:05:59,2019-01-09 08:00:00,2019-01-07 11:57:08,-1.84,Pothole,,,29.833838,-95.43431102,WEB
12324986-101003325319,"5655 GLENMONT, HOUSTON TX 77081",HARRIS,J,GULFTON,1170970000001,,,,,,531B,,PWE Public Works Engineering,Street and Drainage,Pothole,ROWM_StreetMain,18.0,Closed,2019-01-06 10:01:00,2019-01-09 08:00:00,2019-01-07 13:27:15,-1.77,Pothole,,,29.71944642,-95.47993117,WEB
12325023-101003325482,Intersection 11700 EASTEX FWY&4900 MOUNT HOUSTON RD,Harris County,,,,,,,,,414L,Aldine PID,PWE Public Works Engineering,Street and Drainage,Pothole,ROWM_StreetMain,18.0,Closed,2019-01-06 13:45:00,2019-01-09 08:00:00,2019-01-07 08:37:08,-1.97,Pothole-101003325482,3135174.65142,13889878.451379998,29.89097582,-95.31754772,Voice In
12325052-101003325609,"619 BYRNE, HOUSTON TX 77009",HARRIS,H,GREATER HEIGHTS,0611800010001,NW,NW,THURSDAY,3rd Wednesday,THURSDAY-A,493B,Greater Northside MD,PWE Public Works Engineering,Street and Drainage,Pothole,ROWM_StreetMain,18.0,Closed,2019-01-06 16:53:59,2019-01-09 08:00:00,2019-01-07 12:52:08,-1.8,Pothole,,,29.78468615,-95.37888903,WEB
12325069-101003325697,Intersection 1100 CONRAD SAUER DR&10200 GEORGIBELLE DR,Harris County,A,SPRING BRANCH WEST,,NW,,FRIDAY,,,489D,Proposed Memorial City,PWE Public Works Engineering,Street and Drainage,Pothole,ROWM_StreetMain,18.0,Closed,2019-01-06 21:10:09,2019-01-09 08:00:00,2019-01-07 09:12:09,-1.95,Pothole,,,29.78762253,-95.54903419,WEB
12325071-101003325706,"1019 SHERWOOD FOREST, HOUSTON TX 77043",HARRIS,A,SPRING BRANCH WEST,0700770010002,NW,NW,FRIDAY,4th Wednesday,FRIDAY-A,489B,,PWE Public Works Engineering,Street and Drainage,Pothole,ROWM_StreetMain,18.0,Closed,2019-01-06 21:36:04,2019-01-09 08:00:00,2019-01-17 12:52:11,8.2,Pothole,,,29.78640851,-95.58032422,WEB
12325078-101003325740,"3501 N MAIN, HOUSTON TX 77009",HARRIS,H,NEAR NORTHSIDE,0152150000016,NE,NW,FRIDAY,1st Friday,FRIDAY-B,493C,Greater Northside MD,PWE Public Works Engineering,Street and Drainage,Pothole,ROWM_StreetMain,18.0,Closed,2019-01-07 00:26:46,2019-01-08 09:26:45,2019-01-07 14:22:09,-0.79,Pothole - 324401,-95.3705,29.78881,29.78889796,-95.37074453,WAP
12325082-101003325758,1309 HOUSTON TX 77007,HARRIS,H,WASHINGTON AVENUE COALITION / MEMORIAL P,0082420000001,,,,,,493G,,PWE Public Works Engineering,Street and Drainage,Pothole,ROWM_StreetMain,18.0,Closed,2019-01-07 00:27:11,2019-01-08 09:27:11,2019-01-07 13:17:08,-0.84,Pothole - 324459,-95.37285,29.76992,29.77009211,-95.3726811,WAP
12325083-101003325762,5502 E HOUSTON TX 77028,HARRIS,B,EAST HOUSTON,0122030000018,NE,NW,THURSDAY,2nd Monday,THURSDAY-A,455U,,PWE Public Works Engineering,Street and Drainage,Pothole,ROWM_StreetMain,18.0,Closed,2019-01-07 00:27:15,2019-01-08 09:27:15,2019-01-07 08:32:08,-1.04,Pothole - 324464,-95.26939,29.81153,29.81150566,-95.2694811,WAP
12325084-101003325764,1508 HOUSTON TX 77007,HARRIS,H,WASHINGTON AVENUE COALITION / MEMORIAL P,1394030010001,NW,NW,MONDAY,1st Wednesday,MONDAY-A,493G,,PWE Public Works Engineering,Street and Drainage,Pothole,ROWM_StreetMain,18.0,Closed,2019-01-07 00:27:18,2019-01-08 09:27:18,2019-01-07 05:52:08,-1.15,Pothole - 324466,-95.37233,29.77184,29.77178959,-95.37216425,WAP
12325085-101003325779,"5607 LEDBETTER, HOUSTON TX 77087",HARRIS,I,GOLFCREST / BELLFORT / REVEILLE,0591320110004,SE,SE,TUESDAY,3rd Monday,TUESDAY-A,534Q,,PWE Public Works Engineering,Street and Drainage,Pothole,ROWM_StreetMain,18.0,Closed,2019-01-07 00:27:37,2019-01-08 09:27:37,2019-01-07 09:22:08,-1.0,Pothole - 324488,-95.31465,29.68418,29.68397636,-95.31481686,WAP
12325087-101003325788,"6903 LONG POINT, HOUSTON TX 77055",HARRIS,A,SPRING BRANCH EAST,0771210010009,NW,NE,FRIDAY,4th Wednesday,FRIDAY-A,451U,Spring Branch MD,PWE Public Works Engineering,Street and Drainage,Pothole,ROWM_StreetMain,18.0,Closed,2019-01-07 00:27:47,2019-01-08 09:27:47,2019-01-07 06:57:08,-1.1,Pothole - 324516,-95.47034,29.80294,29.80261897,-95.47005221,WAP
12325091-101003325798,"7058 BEECHNUT, HOUSTON TX 77074",HARRIS,J,SHARPSTOWN,0882580000053,SW,SW,TUESDAY,2nd Tuesday,TUESDAY-B,530L,Sharpstown MD,PWE Public Works Engineering,Street and Drainage,Pothole,ROWM_StreetMain,18.0,Closed,2019-01-07 00:27:58,2019-01-08 09:27:58,2019-01-22 12:56:53,14.15,Pothole - 324535,-95.51003,29.69208,29.69242992,-95.50982873,WAP
12325092-101003325806,"7022 AVENUE E, HOUSTON TX 77011",HARRIS,I,MAGNOLIA PARK,0390170000040,SE,SE,MONDAY,1st Thursday,MONDAY-A,494V,East End MD,PWE Public Works Engineering,Street and Drainage,Pothole,ROWM_StreetMain,18.0,Closed,2019-01-07 00:28:07,2019-01-08 09:28:07,2019-01-07 09:52:09,-0.98,Pothole - 324547,-95.3005,29.73787,29.73793192,-95.3004043,WAP
12325093-101003325807,"6942 AVENUE E, HOUSTON TX 77011",HARRIS,I,MAGNOLIA PARK,0390180000045,SE,SE,MONDAY,1st Thursday,MONDAY-A,494V,East End MD,PWE Public Works Engineering,Street and Drainage,Pothole,ROWM_StreetMain,18.0,Closed,2019-01-07 00:28:08,2019-01-08 09:28:08,2019-01-07 09:22:08,-1.0,Pothole - 324548,-95.30161,29.73831,29.73830599,-95.30160042,WAP
12325094-101003325808,"6926 AVENUE E, HOUSTON TX 77011",HARRIS,I,MAGNOLIA PARK,0390180000043,SE,SE,MONDAY,1st Thursday,MONDAY-A,494V,East End MD,PWE Public Works Engineering,Street and Drainage,Pothole,ROWM_StreetMain,18.0,Closed,2019-01-07 00:28:09,2019-01-08 09:28:09,2019-01-07 09:12:09,-1.01,Pothole - 324549,-95.30175,29.73835,29.73835827,-95.30176499,WAP
12325096-101003325810,"6905 AVENUE E, HOUSTON TX 77011",HARRIS,I,MAGNOLIA PARK,0390240000021,SE,SE,MONDAY,1st Thursday,MONDAY-A,494V,East End MD,PWE Public Works Engineering,Street and Drainage,Pothole,ROWM_StreetMain,18.0,Closed,2019-01-07 00:28:12,2019-01-08 09:28:12,2019-01-07 08:52:08,-1.03,Pothole - 324550,-95.30277,29.73914,29.73913928,-95.30277051,WAP
12325097-101003325811,"8999 BROADWAY, HOUSTON TX 77061",HARRIS,I,GOLFCREST / BELLFORT / REVEILLE,0402390000111,SE,SE,TUESDAY,3rd Wednesday,TUESDAY-A,575B,HCID #9,PWE Public Works Engineering,Street and Drainage,Pothole,ROWM_StreetMain,18.0,Closed,2019-01-07 00:28:14,2019-01-08 09:28:14,2019-01-07 10:32:08,-0.96,Pothole - 324552,-95.27716,29.658,29.65854311,-95.27756025,WAP
12325099-101003325815,"1500 ANDREWS, HOUSTON TX 77019",HARRIS,C,FOURTH WARD,1221040010005,NW,NE,MONDAY,1st Wednesday,MONDAY-A,493P,,PWE Public Works Engineering,Street and Drainage,Pothole,ROWM_StreetMain,18.0,Closed,2019-01-07 00:28:18,2019-01-08 09:28:18,2019-01-07 10:37:08,-0.95,Pothole - 324559,-95.38223,29.75584,29.75594658,-95.38229542,WAP
12325101-101003325821,"8601 SOUTHWEST, HOUSTON TX 77074",HARRIS,J,BRAEBURN,1382580010001,,,,,,530P,,PWE Public Works Engineering,Street and Drainage,Pothole,ROWM_StreetMain,18.0,Closed,2019-01-07 00:28:23,2019-01-08 09:28:23,2019-01-07 14:32:15,-0.79,Pothole - 324568,-95.53078,29.68777,29.68728255,-95.5302785,WAP
12325103-101003325834,"3522 WASHINGTON, HOUSTON TX 77007",HARRIS,C,WASHINGTON AVENUE COALITION / MEMORIAL P,1327260010001,NW,NW,MONDAY,1st Wednesday,MONDAY-A,493E,,PWE Public Works Engineering,Street and Drainage,Pothole,ROWM_StreetMain,18.0,Closed,2019-01-07 00:28:39,2019-01-08 09:28:39,2019-01-07 05:57:07,-1.15,Pothole - 324603,-95.39586,29.76936,29.76960416,-95.39555979,WAP
12325109-101003325852,"3531 S DAIRY ASHFORD, HOUSTON TX 77082",HARRIS,F,ELDRIDGE / WEST OAKS,1204340010002,,,,,,528D,,PWE Public Works Engineering,Street and Drainage,Pothole,ROWM_StreetMain,18.0,Closed,2019-01-07 00:28:57,2019-01-08 09:28:57,2019-01-07 11:52:08,-0.9,Pothole - 324626,-95.60468,29.72099,29.72090332,-95.60442026,WAP
12325115-101003325867,"3740 WESTHEIMER, HOUSTON TX 77027",HARRIS,G,AFTON OAKS / RIVER OAKS AREA,1240770010001,,,,,,492S,,PWE Public Works Engineering,Street and Drainage,Pothole,ROWM_StreetMain,18.0,Closed,2019-01-07 00:29:13,2019-01-08 09:29:13,2019-01-07 08:52:08,-1.03,Pothole - 324654,-95.44027,29.74164,29.74196171,-95.44018714,WAP
12325121-101003325894,"2905 WASHINGTON, HOUSTON TX 77007",HARRIS,H,WASHINGTON AVENUE COALITION / MEMORIAL P,0401010000001,,,,,,493J,,PWE Public Works Engineering,Street and Drainage,Pothole,ROWM_StreetMain,18.0,Closed,2019-01-07 00:29:40,2019-01-08 09:29:40,2019-01-07 13:12:09,-0.85,Pothole - 324697,-95.38853,29.76803,29.76817953,-95.38847008,WAP
12325103-101003325900,"3522 WASHINGTON, HOUSTON TX 77007",HARRIS,C,WASHINGTON AVENUE COALITION / MEMORIAL P,1327260010001,NW,NW,MONDAY,1st Wednesday,MONDAY-A,493E,,PWE Public Works Engineering,Street and Drainage,Pothole,ROWM_StreetMain,18.0,Closed,2019-01-07 00:29:46,2019-01-08 09:29:46,2019-01-07 00:35:58,-1.37,Pothole - 324706,-95.396,29.76965,29.76960416,-95.39555979,WAP
12325124-101003325911,"209 22ND, HOUSTON TX 77008",HARRIS,C,GREATER HEIGHTS,1354580010001,NW,NE,THURSDAY,3rd Wednesday,THURSDAY-B,452V,,PWE Public Works Engineering,Street and Drainage,Pothole,ROWM_StreetMain,18.0,Closed,2019-01-07 00:30:00,2019-01-08 09:30:00,2019-01-07 14:12:09,-0.8,Pothole - 324728,-95.39997,29.80598,29.8061316,-95.39986857,WAP
12325126-101003325913,"2864 YOAKUM, HOUSTON TX 77006",HARRIS,C,NEARTOWN - MONTROSE,0180390000006,,,,,,493S,Montrose Management District,PWE Public Works Engineering,Street and Drainage,Pothole,ROWM_StreetMain,18.0,Closed,2019-01-07 00:30:01,2019-01-08 09:30:01,2019-01-07 10:57:09,-0.94,Pothole - 324730,-95.39303,29.74537,29.7452223,-95.3930319,WAP
12325125-101003325912,"301 W 21ST, HOUSTON TX 77008",HARRIS,C,GREATER HEIGHTS,0200700000049,NW,NE,THURSDAY,3rd Wednesday,THURSDAY-B,452V,,PWE Public Works Engineering,Street and Drainage,Pothole,ROWM_StreetMain,18.0,Closed,2019-01-07 00:30:01,2019-01-08 09:30:01,2019-01-07 14:02:15,-0.81,Pothole - 324729,-95.40144,29.80507,29.80518846,-95.40164342,WAP
12325128-101003325938,"5803 GREENS, HOUSTON TX 77396",HARRIS,B,IAH / AIRPORT AREA,0410970000270,,,,,,374R,,PWE Public Works Engineering,Street and Drainage,Pothole,ROWM_StreetMain,18.0,Closed,2019-01-07 00:30:30,2019-01-08 09:30:30,2019-01-07 10:42:08,-0.95,Pothole - 324777,-95.30219,29.95217,29.95254734,-95.30297439,WAP
12325136-101003325972,"1300 N ELDRIDGE, HOUSTON TX 77079",HARRIS,A,ADDICKS PARK TEN,0402240000080,,,,,,448Y,,PWE Public Works Engineering,Street and Drainage,Pothole,ROWM_StreetMain,18.0,Closed,2019-01-07 02:11:26,2019-01-08 11:11:26,2019-01-07 10:12:08,-1.04,Pothole,,,29.79226975,-95.6141424,WEB
12325143-101003326008,"6200 BELLAIRE, HOUSTON TX 77081",HARRIS,J,GULFTON,0370620030037,,,,,,531E,,PWE Public Works Engineering,Street and Drainage,Pothole,ROWM_StreetMain,18.0,Closed,2019-01-07 05:39:58,2019-01-08 14:39:58,2019-01-07 13:12:10,-1.06,Pothole,,,29.70608414,-95.49140264,WEB
12324695-101003326058,Intersection 14000 BEAMER RD&2400 DIXIE FARM RD,Harris County,,,,,,,,,616M,,PWE Public Works Engineering,Street and Drainage,Pothole,ROWM_StreetMain,18.0,Closed,2019-01-07 07:30:10,2019-01-08 16:30:10,2019-01-07 07:30:20,-1.37,Pothole,,,29.5731278,-95.19914007,WEB
12325151-101003326062,"4289 SAN FELIPE, HOUSTON TX 77027",HARRIS,G,AFTON OAKS / RIVER OAKS AREA,0813170000015,,,,,,491R,,PWE Public Works Engineering,Street and Drainage,Pothole,ROWM_StreetMain,18.0,Closed,2019-01-07 07:31:20,2019-01-08 16:31:20,2019-01-08 10:02:08,-0.27,Pothole - 324794,-95.45078,29.74643,29.74642905,-95.45097583,WAP
12325155-101003326093,"3891 FARRELL, HOUSTON TX 77338",HARRIS,B,IAH / AIRPORT AREA,0480790000010,,,,,,333U,,PWE Public Works Engineering,Street and Drainage,Pothole,ROWM_StreetMain,18.0,Closed,2019-01-07 08:01:21,2019-01-09 08:01:21,2019-01-08 14:02:10,-0.75,Pothole - 324796,-95.36502,30.00446,30.00498974,-95.36632489,WAP
12325179-101003326192,Intersection 3700 KILKENNY DR&12700 LEITRIM WAY,Harris County,D,SOUTH ACRES / CRESTMONT PARK,,SE,SE,FRIDAY,4th Friday,FRIDAY-B,573Q,Five Corners HCID #10B,PWE Public Works Engineering,Street and Drainage,Pothole,ROWM_StreetMain,18.0,Closed,2019-01-07 08:52:02,2019-01-09 08:52:01,2019-01-08 08:02:08,-1.03,Pothole,,,29.62475581,-95.36295322,Unknown
12325197-101003326262,"5014 OATES, HOUSTON TX 77013",HARRIS,I,EL DORADO / OATES PRAIRIE,0731830000166,NE,NE,THURSDAY,1st Monday,THURSDAY-A,456S,,PWE Public Works Engineering,Street and Drainage,Pothole,ROWM_StreetMain,18.0,Closed,2019-01-07 09:11:06,2019-01-09 09:11:06,2019-01-07 15:27:08,-1.74,Pothole,,,29.80993096,-95.24011102,WEB
12325206-101003326288,"1997 INDIANA, HOUSTON TX 77019",HARRIS,C,NEARTOWN - MONTROSE,1390180010003,NW,NE,MONDAY,1st Wednesday,MONDAY-A,492R,Montrose Management District,PWE Public Works Engineering,Street and Drainage,Pothole,ROWM_StreetMain,18.0,Closed,2019-01-07 09:19:24,2019-01-09 09:19:23,2019-01-08 09:12:07,-1.01,Pothole-101003326288,3108016.16571,13836574.17643,29.74678431,-95.40838058,Voice In
12325237-101003326404,"2532 FONDREN, HOUSTON TX 77063",HARRIS,G,MID WEST,0410280030062,,,,,,490U,,PWE Public Works Engineering,Street and Drainage,Pothole,ROWM_StreetMain,18.0,Closed,2019-01-07 09:57:56,2019-01-09 09:57:56,2019-01-08 10:22:08,-0.98,Pothole-101003326404,3072172.51069,13832728.3708,29.73919206,-95.52164823,Voice In
12325244-101003326431,"1107 SHERWOOD FOREST, HOUSTON TX 77043",HARRIS,A,SPRING BRANCH WEST,1363340020015,NW,NW,FRIDAY,4th Wednesday,FRIDAY-A,489B,,PWE Public Works Engineering,Street and Drainage,Pothole,ROWM_StreetMain,18.0,Closed,2019-01-07 10:05:06,2019-01-09 10:05:06,2019-01-07 11:07:08,-1.96,Pothole-101003326431,3053065.86288,13849529.9832,29.78692584,-95.58028252,Voice In
12325272-101003326535,"4211 BEECHNUT, HOUSTON TX 77096",HARRIS,C,MEYERLAND AREA,0440860000221,,,,,,531R,,PWE Public Works Engineering,Street and Drainage,Pothole,ROWM_StreetMain,18.0,Closed,2019-01-07 10:30:11,2019-01-09 10:30:11,2019-01-07 14:17:08,-1.84,Pothole,,,29.68873615,-95.44791519,WEB
12325288-101003326617,"12110 CARRIAGE HILL, HOUSTON TX 77077",HARRIS,G,BRIAR FOREST,1127280050007,,,,,,489J,,PWE Public Works Engineering,Street and Drainage,Pothole,ROWM_StreetMain,18.0,Closed,2019-01-07 10:49:30,2019-01-09 10:49:30,2019-01-08 13:57:09,-0.87,Pothole,,,29.75583397,-95.59458877,WEB
12325291-101003326626,Intersection 1000 LOUISE ST&5800 MICHAUX ST,Harris County,H,GREATER HEIGHTS,,NW,NW,THURSDAY,1st Friday,THURSDAY-A,453T,Greater Northside MD,PWE Public Works Engineering,Street and Drainage,Pothole,ROWM_StreetMain,18.0,Closed,2019-01-07 10:52:07,2019-01-09 10:52:07,2019-01-07 14:02:09,-1.87,Pothole-101003326626,3114956.72663,13858093.92309,29.80534739,-95.38442239,Voice In
12325370-101003326917,"504 BERING, HOUSTON TX 77057",HARRIS,G,GREATER UPTOWN,1368400010001,,,,,,491K,,PWE Public Works Engineering,Street and Drainage,Pothole,ROWM_StreetMain,18.0,Closed,2019-01-07 12:28:49,2019-01-09 12:28:48,2019-01-08 09:22:08,-1.13,Pothole-101003326917,3084832.68222,13842615.17157,29.76532733,-95.48083484,Voice In
12325399-101003327040,Intersection 11000 N GESSNER RD&8032 LOYEL POINTE DR&8600 TWELVE LAKES BLVD,,,,,,,,,,370S,,PWE Public Works Engineering,Street and Drainage,Pothole,ROWM_StreetMain,18.0,Closed,2019-01-07 13:11:51,2019-01-09 13:11:51,2019-01-07 14:07:09,-1.96,Pothole,,,,,WEB
12325444-101003327201,"9406 ALBURY, HOUSTON TX 77096",HARRIS,C,MEYERLAND AREA,0972310000026,SW,SW,TUESDAY,2nd Tuesday,TUESDAY-B,530V,HCID #5 (Brays Oaks),PWE Public Works Engineering,Street and Drainage,Pothole,ROWM_StreetMain,18.0,Closed,2019-01-07 14:03:53,2019-01-09 14:03:53,2019-01-08 11:12:08,-1.12,Pothole,,,29.6766467,-95.50017333,Unknown
12325451-101003327248,"7038 AVENUE F, HOUSTON TX 77011",HARRIS,I,MAGNOLIA PARK,0390230000051,SE,SE,MONDAY,1st Thursday,MONDAY-A,494V,East End MD,PWE Public Works Engineering,Street and Drainage,Pothole,ROWM_StreetMain,18.0,Closed,2019-01-07 14:16:27,2019-01-09 14:16:27,2019-01-08 05:42:08,-1.36,Pothole - 324865,-95.2991,29.73847,29.73838398,-95.29927777,WAP
12325452-101003327251,"7037 AVENUE F, HOUSTON TX 77011",HARRIS,I,MAGNOLIA PARK,0390290000011,SE,SE,MONDAY,1st Thursday,MONDAY-A,494V,East End MD,PWE Public Works Engineering,Street and Drainage,Pothole,ROWM_StreetMain,18.0,Closed,2019-01-07 14:16:33,2019-01-09 14:16:33,2019-01-17 13:12:09,7.96,Pothole - 324868,-95.29943,29.73863,29.73883577,-95.29940427,WAP
12325453-101003327252,"7052 AVENUE F, HOUSTON TX 77011",HARRIS,I,MAGNOLIA PARK,0390230000056,SE,SE,MONDAY,1st Thursday,MONDAY-A,494V,East End MD,PWE Public Works Engineering,Street and Drainage,Pothole,ROWM_StreetMain,18.0,Closed,2019-01-07 14:16:36,2019-01-09 14:16:36,2019-01-08 09:07:09,-1.21,Pothole - 324866,-95.29889,29.73846,29.73830482,-95.2988829,WAP
12325454-101003327253,"7024 AVENUE F, HOUSTON TX 77011",HARRIS,I,MAGNOLIA PARK,0390230000048,SE,SE,MONDAY,1st Thursday,MONDAY-A,494V,East End MD,PWE Public Works Engineering,Street and Drainage,Pothole,ROWM_StreetMain,18.0,Closed,2019-01-07 14:16:41,2019-01-09 14:16:41,2019-01-17 13:12:09,7.96,Pothole - 324869,-95.29945,29.73861,29.73840164,-95.29950182,WAP
12325457-101003327265,"11111 SHERWOOD GARDEN, HOUSTON TX 77043",HARRIS,A,SPRING BRANCH WEST,1211180010003,NW,NW,FRIDAY,4th Wednesday,FRIDAY-A,489B,,PWE Public Works Engineering,Street and Drainage,Pothole,ROWM_StreetMain,18.0,Closed,2019-01-07 14:19:22,2019-01-09 14:19:22,2019-01-08 15:02:08,-0.97,Pothole-101003327265,3053101.69221,13849701.46645,29.78739433,-95.58015381,Voice In
12325466-101003327306,Intersection 900 FOREST COVE DR&1200 HAMBLEN RD,Harris County,E,KINGWOOD AREA,,NE,NE,TUESDAY,2nd Wednesday,TUESDAY-A,336K,,PWE Public Works Engineering,Street and Drainage,Pothole,ROWM_StreetMain,18.0,Closed,2019-01-07 14:29:48,2019-01-09 14:29:48,2019-01-08 09:27:08,-1.21,Pothole-101003327306,3158429.94808,13940700.67257,30.02862317,-95.23903865,Voice In
12325465-101003327309,Intersection 4000 HOLLISTER ST&8800 PITNER RD,Harris County,A,SPRING BRANCH CENTRAL,,,,,,,450M,Spring Branch MD,PWE Public Works Engineering,Street and Drainage,Pothole,ROWM_StreetMain,18.0,Closed,2019-01-07 14:30:24,2019-01-09 14:30:24,2019-01-08 13:07:09,-1.06,Pothole,,,29.82933808,-95.50926972,WEB
12325469-101003327323,Intersection 500 HOUSTON AVE&1490 N MEMORIAL WAY,,H,WASHINGTON AVENUE COALITION / MEMORIAL P,,,,,,,493L,,PWE Public Works Engineering,Street and Drainage,Pothole,ROWM_StreetMain,18.0,Closed,2019-01-07 14:33:47,2019-01-09 14:33:47,2019-01-08 11:12:08,-1.14,Pothole-101003327323,3119326.27826,13843191.43879,,,Voice In
12325471-101003327331,"8526 PITNER, HOUSTON TX 77080",HARRIS,A,SPRING BRANCH CENTRAL,1327460010001,,,,,,450M,Spring Branch MD,PWE Public Works Engineering,Street and Drainage,Pothole,ROWM_StreetMain,18.0,Closed,2019-01-07 14:36:46,2019-01-09 14:36:46,2019-01-08 13:52:08,-1.03,Pothole,,,29.82837733,-95.50371746,WEB
12325474-101003327337,"8500 PITNER, HOUSTON TX 77080",HARRIS,A,SPRING BRANCH CENTRAL,0451520000119,,,,,,450M,Spring Branch MD,PWE Public Works Engineering,Street and Drainage,Pothole,ROWM_StreetMain,18.0,Closed,2019-01-07 14:38:47,2019-01-09 14:38:47,2019-01-08 11:27:09,-1.13,Pothole,,,29.82942431,-95.49995228,WEB
12325480-101003327344,"7129 LAWNDALE, HOUSTON TX 77023",HARRIS,I,LAWNDALE / WAYSIDE,0410300000050,,,,,,535A,East End MD,PWE Public Works Engineering,Street and Drainage,Pothole,ROWM_StreetMain,18.0,Closed,2019-01-07 14:40:33,2019-01-09 14:40:33,2019-01-08 09:32:08,-1.21,Pothole-101003327344,3144832.54155,13827154.67985,29.71773444,-95.29335689,Voice In
12325497-101003327399,"5762 FONTENELLE, HOUSTON TX 77035",HARRIS,K,WESTBURY,0903760000033,SW,SW,THURSDAY,2nd Thursday,THURSDAY-A,571E,,PWE Public Works Engineering,Street and Drainage,Pothole,ROWM_StreetMain,18.0,Closed,2019-01-07 14:59:53,2019-01-09 14:59:53,2019-01-08 10:37:09,-1.18,Pothole,,,29.6438637,-95.48973596,WEB
12325510-101003327468,"419 MALONE, HOUSTON TX 77007",HARRIS,C,WASHINGTON AVENUE COALITION / MEMORIAL P,0300620000011,NW,NW,MONDAY,1st Wednesday,MONDAY-A,492L,,PWE Public Works Engineering,Street and Drainage,Pothole,ROWM_StreetMain,18.0,Closed,2019-01-07 15:19:23,2019-01-09 15:19:23,2019-01-08 13:12:09,-1.09,Pothole,,,29.76654405,-95.41951059,WEB
12325529-101003327554,Intersection 3400 BEULAH ST&3200 SAMPSON ST,Harris County,D,GREATER THIRD WARD,,SE,SW,TUESDAY,3rd Friday,TUESDAY-A,493Z,Greater Southeast MD,PWE Public Works Engineering,Street and Drainage,Pothole,ROWM_StreetMain,18.0,Closed,2019-01-07 15:53:13,2019-01-09 15:53:13,2019-01-08 11:52:08,-1.17,Pothole,,,29.72967524,-95.35305787,WEB
12325579-101003327634,Intersection 1700 W LAKE HOUSTON PKWY&4500 MAGNOLIA COVE DR,Harris County,E,KINGWOOD AREA,,,,,,,337G,,PWE Public Works Engineering,Street and Drainage,Pothole,ROWM_StreetMain,18.0,Closed,2019-01-07 16:20:16,2019-01-09 16:20:16,2019-01-08 12:42:08,-1.15,Pothole-101003327634,3178775.80044,13942903.89619,30.03286408,-95.17455015,Voice In
12325561-101003327672,"5629 KINGWOOD, HOUSTON TX 77345",HARRIS,E,KINGWOOD AREA,1149580040110,,,,,,297Z,,PWE Public Works Engineering,Street and Drainage,Pothole,ROWM_StreetMain,18.0,Closed,2019-01-07 16:32:27,2019-01-09 16:32:27,2019-01-08 11:17:09,-1.22,Pothole-101003327672,3182737.79579,13951362.74508,30.05575443,-95.16115872,Voice In
101003327678,Intersection 2300 KINGWOOD DR&2600 WOODLAND HILLS DR,,E,KINGWOOD AREA,,,,,,,336C,,PWE Public Works Engineering,Street and Drainage,Pothole,ROWM_StreetMain,18.0,Closed,2019-01-07 16:34:32,2019-01-09 16:34:31,2019-02-05 12:05:05,26.81,Pothole,,,,,Voice In
12325566-101003327691,Intersection 2300 TREE LN&3500 WOODLAND HILLS DR,Harris County,E,KINGWOOD AREA,,,,,,,296Z,,PWE Public Works Engineering,Street and Drainage,Pothole,ROWM_StreetMain,18.0,Closed,2019-01-07 16:36:26,2019-01-09 16:36:26,2019-01-08 10:37:09,-1.25,Pothole-101003327691,3166649.76137,13952211.16661,30.05952836,-95.21189876,Voice In
12325568-101003327698,Intersection 2300 KINGWOOD DR&2600 WOODLAND HILLS DR,,E,KINGWOOD AREA,,,,,,,336C,,PWE Public Works Engineering,Street and Drainage,Pothole,ROWM_StreetMain,18.0,Closed,2019-01-07 16:39:30,2019-01-09 16:39:30,2019-01-08 10:52:08,-1.24,Pothole-101003327698,3165458.84183,13948339.30428,,,Voice In
12325580-101003327769,Intersection 3500 WESLAYAN ST&4000 WHITMAN ST,Harris County,C,GREENWAY / UPPER KIRBY AREA,,NW,SW,MONDAY,4th Wednesday,MONDAY-A,492W,,PWE Public Works Engineering,Street and Drainage,Pothole,ROWM_StreetMain,18.0,Closed,2019-01-07 17:11:54,2019-01-10 08:00:00,2019-01-08 09:47:09,-1.93,Pothole,,,29.73447028,-95.44152061,Unknown
12325586-101003327795,"3011 SAMPSON, HOUSTON TX 77004",HARRIS,D,GREATER THIRD WARD,0372500000009,SE,SW,TUESDAY,3rd Friday,TUESDAY-A,493Z,Greater Southeast MD,PWE Public Works Engineering,Street and Drainage,Pothole,ROWM_StreetMain,18.0,Closed,2019-01-07 17:23:38,2019-01-10 08:00:00,2019-01-08 10:57:08,-1.88,Pothole,,,29.73044424,-95.35258832,WEB
12325587-101003327802,"3009 SAMPSON, HOUSTON TX 77004",HARRIS,D,GREATER THIRD WARD,0372500000008,SE,SW,TUESDAY,3rd Friday,TUESDAY-A,493Z,Greater Southeast MD,PWE Public Works Engineering,Street and Drainage,Pothole,ROWM_StreetMain,18.0,Closed,2019-01-07 17:28:23,2019-01-10 08:00:00,2019-01-08 05:37:08,-2.1,Pothole,,,29.73070017,-95.35248585,WEB
12325588-101003327803,Intersection 5200 GRIGGS RD&5800 MARTIN LUTHER KING BLVD,,D,GREATER OST / SOUTH UNION,,,,,,,534J,Greater Southeast MD,PWE Public Works Engineering,Street and Drainage,Pothole,ROWM_StreetMain,18.0,Closed,2019-01-07 17:28:25,2019-01-10 08:00:00,2019-01-08 09:02:09,-1.96,Pothole-101003327803,3131285.83046,13819508.56325,,,Voice In
12325590-101003327808,Intersection 3400 DREW ST&2800 SAMPSON ST,,D,GREATER THIRD WARD,,SE,SE,TUESDAY,3rd Friday,,493Z,Greater Southeast MD,PWE Public Works Engineering,Street and Drainage,Pothole,ROWM_StreetMain,18.0,Closed,2019-01-07 17:30:00,2019-01-10 08:00:00,2019-01-08 13:02:09,-1.79,Pothole,,,,,WEB
12325591-101003327815,Intersection 3400 DENNIS ST&2700 SAMPSON ST,Harris County,D,GREATER THIRD WARD,,SE,SW,TUESDAY,3rd Friday,TUESDAY-A,493Z,Greater Southeast MD,PWE Public Works Engineering,Street and Drainage,Pothole,ROWM_StreetMain,18.0,Closed,2019-01-07 17:32:59,2019-01-10 08:00:00,2019-01-08 12:52:08,-1.8,Pothole,,,29.73293309,-95.35176094,WEB
12325617-101003327891,"5511 BENNINGTON, HOUSTON TX 77028",HARRIS,B,TRINITY / HOUSTON GARDENS,0660250110888,NE,NW,THURSDAY,2nd Tuesday,THURSDAY-A,454R,,PWE Public Works Engineering,Street and Drainage,Pothole,ROWM_StreetMain,18.0,Closed,2019-01-07 18:17:47,2019-01-10 08:00:00,2019-01-08 08:52:08,-1.96,Pothole-101003327891,3138227.78869,13863355.58383,29.81781143,-95.31055739,Voice In
12325616-101003327981,Intersection 700 DURHAM DR&4900 FLOYD ST,,C,WASHINGTON AVENUE COALITION / MEMORIAL P,,NW,NE,MONDAY,1st Wednesday,Monday-a,492L,,PWE Public Works Engineering,Street and Drainage,Pothole,ROWM_StreetMain,18.0,Closed,2019-01-07 19:10:44,2019-01-10 08:00:00,2019-01-08 13:52:08,-1.76,Pothole,,,,,Unknown
12329223-101003328126,"1107 LEHALL, HOUSTON TX 77030",HARRIS,D,MEDICAL CENTER AREA,0511090020023,SW,SE,THURSDAY,3rd Monday,THURSDAY-A,532M,,PWE Public Works Engineering,Street and Drainage,Pothole,ROWM_StreetMain,18.0,Closed,2019-01-07 21:31:39,2019-01-10 08:00:00,2019-01-18 08:32:08,8.02,Pothole - 324939,-95.40039,29.69986,29.70002807,-95.40043714,WAP
12325643-101003328133,"12083 FAIRPOINT, HOUSTON TX 77099",HARRIS,F,ALIEF,1146180030001,SW,SW,MONDAY,1st Monday,MONDAY-B,529S,,PWE Public Works Engineering,Street and Drainage,Pothole,ROWM_StreetMain,18.0,Closed,2019-01-07 22:23:49,2019-01-10 08:00:00,2019-01-08 11:52:08,-1.84,Pothole,,,29.67064895,-95.5928588,Unknown
12325646-101003328159,"906 KELLEY, HOUSTON TX 77009",HARRIS,H,NORTHSIDE VILLAGE,0660630040011,NE,NW,FRIDAY,1st Wednesday,Friday-b,453R,Greater Northside MD,PWE Public Works Engineering,Street and Drainage,Pothole,ROWM_StreetMain,18.0,Closed,2019-01-08 00:36:27,2019-01-09 09:36:27,2019-01-08 10:02:08,-0.98,Pothole - 324804,-95.35951,29.81299,29.81296036,-95.35944362,WAP
12325650-101003328166,"11862 BRIAR FOREST, HOUSTON TX 77077",HARRIS,G,BRIAR FOREST,1080150000023,,,,,,489N,,PWE Public Works Engineering,Street and Drainage,Pothole,ROWM_StreetMain,18.0,Closed,2019-01-08 00:36:38,2019-01-09 09:36:38,2019-01-08 13:22:08,-0.84,Pothole - 324846,-95.58909,29.74902,29.7491432,-95.58891263,WAP
12325673-101003328297,"1510 HAZARD, HOUSTON TX 77019",HARRIS,C,NEARTOWN - MONTROSE,0620520020013,NW,NE,MONDAY,1st Wednesday,MONDAY-A,492R,Montrose Management District,PWE Public Works Engineering,Street and Drainage,Pothole,ROWM_StreetMain,18.0,Closed,2019-01-08 07:31:53,2019-01-09 16:31:53,2019-01-09 10:07:08,-0.27,Pothole-101003328297,3108259.65538,13838433.18813,29.75187365,-95.40743367,Voice In
12325676-101003328302,"7003 BRITTMOORE, UNINCORPORATED TX 77041",HARRIS,,,0382760000006,,,,,,409U,,PWE Public Works Engineering,Street and Drainage,Pothole,ROWM_StreetMain,18.0,Closed,2019-01-08 07:35:29,2019-01-09 16:35:29,2019-01-09 11:52:08,-0.2,Pothole,,,29.87286744,-95.56988317,Unknown
12325727-101003328601,"13137 S WAYSIDE, HOUSTON TX 77048",HARRIS,D,MINNETEX,0261150000151,SE,SE,FRIDAY,4th Monday,FRIDAY-B,574Q,,PWE Public Works Engineering,Street and Drainage,Pothole,ROWM_StreetMain,18.0,Closed,2019-01-08 09:16:19,2019-01-10 09:16:19,2019-01-09 13:02:08,-0.84,Pothole - 324964,-95.31777,29.61835,29.61838811,-95.31699625,WAP
12325728-101003328602,"5903 ALLISON, HOUSTON TX 77048",HARRIS,D,MINNETEX,1289290010001,SE,SE,FRIDAY,4th Monday,FRIDAY-B,574U,,PWE Public Works Engineering,Street and Drainage,Pothole,ROWM_StreetMain,18.0,Closed,2019-01-08 09:16:27,2019-01-10 09:16:27,2019-01-17 13:12:09,7.16,Pothole - 324966,-95.31786,29.61654,29.61664691,-95.31746477,WAP
12325735-101003328632,"1177 W LOOP S, HOUSTON TX 77027",HARRIS,G,AFTON OAKS / RIVER OAKS AREA,0985710000004,,,,,,491M,,PWE Public Works Engineering,Street and Drainage,Pothole,ROWM_StreetMain,18.0,Closed,2019-01-08 09:25:21,2019-01-10 09:25:21,2019-01-09 16:32:08,-0.7,Pothole,,,29.75717002,-95.45466156,WEB
12325739-101003328658,"15115 MEMORIAL, HOUSTON TX 77079",HARRIS,G,MEMORIAL,0992650000016,,,,,,488C,HCID #4 (Energy Corridor),PWE Public Works Engineering,Street and Drainage,Pothole,ROWM_StreetMain,18.0,Closed,2019-01-08 09:31:19,2019-01-10 09:31:19,2019-01-09 12:57:08,-0.86,Pothole - 324968,-95.61989,29.77852,29.77843867,-95.61963569,WAP
12325776-101003328789,"118 B E 27TH, HOUSTON TX 77008",HARRIS,C,GREATER HEIGHTS,0350870340043,NW,NE,THURSDAY,3rd Wednesday,THURSDAY-B,453S,,PWE Public Works Engineering,Street and Drainage,Pothole,ROWM_StreetMain,18.0,Closed,2019-01-08 10:01:45,2019-01-10 10:01:44,2019-01-09 11:42:08,-0.93,Pothole - 324977,-95.39786,29.81137,29.81122583,-95.39781851,WAP
12325793-101003328883,"5410 ALLISON, HOUSTON TX 77048",HARRIS,D,MINNETEX,0261160000127,SE,SE,FRIDAY,4th Monday,FRIDAY-B,574T,,PWE Public Works Engineering,Street and Drainage,Pothole,ROWM_StreetMain,18.0,Closed,2019-01-08 10:26:10,2019-01-10 10:26:10,2019-01-09 13:02:08,-0.89,Pothole,,,29.61621812,-95.32764878,WEB
12325829-101003329008,"620 BYRNE, HOUSTON TX 77009",HARRIS,H,GREATER HEIGHTS,0611810030003,NW,NW,THURSDAY,3rd Wednesday,THURSDAY-A,493B,Greater Northside MD,PWE Public Works Engineering,Street and Drainage,Pothole,ROWM_StreetMain,18.0,Closed,2019-01-08 11:01:14,2019-01-10 11:01:13,2019-01-09 11:17:08,-0.99,Pothole,,,29.78421206,-95.37895803,WEB
12325839-101003329046,"8282 CAMBRIDGE, HOUSTON TX 77054",HARRIS,K,ASTRODOME AREA,0440940000114,,,,,,533N,,PWE Public Works Engineering,Street and Drainage,Pothole,ROWM_StreetMain,18.0,Closed,2019-01-08 11:12:13,2019-01-10 11:09:00,2019-01-09 13:12:08,-0.91,Pothole-101003329046,3112434.56895,13815039.80349,29.68721824,-95.39655373,e-mail In
12325841-101003329055,"7447 CAMBRIDGE, HOUSTON TX 77054",HARRIS,D,ASTRODOME AREA,1147400010024,,,,,,533J,,PWE Public Works Engineering,Street and Drainage,Pothole,ROWM_StreetMain,18.0,Closed,2019-01-08 11:13:45,2019-01-10 11:12:00,2019-01-09 12:47:08,-0.93,Pothole-101003329055,3113764.67193,13818456.87244,29.69649815,-95.39203454,e-mail In
12325882-101003329201,"7300 NAVIGATION, HOUSTON TX 77011",HARRIS,I,MAGNOLIA PARK,0252070010060,SE,SE,MONDAY,1st Thursday,MONDAY-A,495S,East End MD,PWE Public Works Engineering,Street and Drainage,Pothole,ROWM_StreetMain,18.0,Closed,2019-01-08 11:58:19,2019-01-10 11:58:19,2019-01-09 10:27:09,-1.06,Pothole,,,29.74159313,-95.29231566,WEB
12325884-101003329219,"6105 BEVERLY HILL, HOUSTON TX 77057",HARRIS,J,MID WEST,0690440040161,,,,,,491W,,PWE Public Works Engineering,Street and Drainage,Pothole,ROWM_StreetMain,18.0,Closed,2019-01-08 12:01:31,2019-01-10 12:01:31,2019-01-09 15:57:08,-0.84,Pothole - 324997,-95.48747,29.72974,29.72982302,-95.48781148,WAP
12325895-101003329274,"8048 BARKLEY, HOUSTON TX 77017",HARRIS,I,MEADOWBROOK / ALLENDALE,0591810140004,SE,SE,MONDAY,1st Monday,MONDAY-B,535U,,PWE Public Works Engineering,Street and Drainage,Pothole,ROWM_StreetMain,18.0,Closed,2019-01-08 12:18:19,2019-01-10 12:18:19,2019-01-09 10:32:08,-1.07,Pothole-101003329274,3154697.32825,13812728.996099997,29.67722001,-95.26374553,Voice In
12325903-101003329320,"7019 NAVIGATION, HOUSTON TX 77011",HARRIS,I,MAGNOLIA PARK,0250880000059,SE,SE,MONDAY,1st Thursday,MONDAY-A,494V,East End MD,PWE Public Works Engineering,Street and Drainage,Pothole,ROWM_StreetMain,18.0,Closed,2019-01-08 12:29:41,2019-01-10 12:29:41,2019-01-08 15:17:08,-1.88,Pothole,,,29.74380926,-95.29815719,WEB
12325909-101003329388,"6801 AVENUE K, HOUSTON TX 77011",HARRIS,I,MAGNOLIA PARK,0390560000023,SE,SE,MONDAY,1st Thursday,MONDAY-A,494V,East End MD,PWE Public Works Engineering,Street and Drainage,Pothole,ROWM_StreetMain,18.0,Closed,2019-01-08 12:52:08,2019-01-10 12:52:08,2019-01-09 09:22:08,-1.15,Pothole-101003329388,3141407.45916,13836545.988819998,29.74384597,-95.30320709,Voice In
12325910-101003329397,Intersection 1200 MALTBY ST&6950 NAVIGATION BLVD,Harris County,I,MAGNOLIA PARK,,SE,SE,MONDAY,1st Thursday,MONDAY-A,494V,East End MD,PWE Public Works Engineering,Street and Drainage,Pothole,ROWM_StreetMain,18.0,Closed,2019-01-08 12:53:32,2019-01-10 12:53:32,2019-01-08 14:17:08,-1.94,Pothole-101003329397,3142713.58089,13836601.55499,29.74388511,-95.29908764,Voice In
12325915-101003329423,"11300 MYKAWA, HOUSTON TX 77048",HARRIS,D,MINNETEX,0431920030067,SE,SE,FRIDAY,4th Monday,FRIDAY-B,574V,,PWE Public Works Engineering,Street and Drainage,Pothole,ROWM_StreetMain,18.0,Closed,2019-01-08 13:01:22,2019-01-10 13:01:22,2019-01-22 12:46:53,11.99,Pothole - 325002,-95.30305,29.61525,29.61451499,-95.30373574,WAP
12325914-101003329422,"10922 MYKAWA, HOUSTON TX 77048",HARRIS,D,MINNETEX,0270230010002,SE,SE,FRIDAY,4th Monday,FRIDAY-B,574R,,PWE Public Works Engineering,Street and Drainage,Pothole,ROWM_StreetMain,18.0,Closed,2019-01-08 13:01:22,2019-01-10 13:01:22,2019-01-22 11:26:53,11.93,Pothole - 325003,-95.30448,29.61997,29.62003012,-95.30479016,WAP
12325916-101003329424,"11795 MYKAWA, HOUSTON TX 77075",HARRIS,D,GREATER HOBBY AREA,0431920030060,,,,,,574V,,PWE Public Works Engineering,Street and Drainage,Pothole,ROWM_StreetMain,18.0,Closed,2019-01-08 13:01:25,2019-01-10 13:01:25,2019-01-09 11:17:08,-1.07,Pothole - 325000,-95.3009,29.60802,29.6076932,-95.30056073,WAP
12325927-101003329468,"10720 MYKAWA, HOUSTON TX 77048",HARRIS,D,MINNETEX,0470530010001,SE,SE,FRIDAY,4th Tuesday,FRIDAY-B,574R,,PWE Public Works Engineering,Street and Drainage,Pothole,ROWM_StreetMain,18.0,Closed,2019-01-08 13:16:27,2019-01-10 13:16:27,2019-01-09 10:07:08,-1.13,Pothole - 325004,-95.30569,29.62382,29.62359407,-95.3058285,WAP
12325968-101003329663,Intersection 10200 CLAY RD&4300 GESSNER RD,,A,CARVERDALE,,,,,,,450E,Spring Branch MD,PWE Public Works Engineering,Street and Drainage,Pothole,ROWM_StreetMain,18.0,Closed,2019-01-08 14:12:17,2019-01-10 14:12:17,2019-01-09 10:12:08,-1.17,Pothole-101003329663,3063664.81708,13866325.75768,,,Voice In
12325978-101003329694,Intersection 1000 FRAWLEY ST&4600 ROBERTSON ST,,H,NEAR NORTHSIDE,,NE,NE,FRIDAY,1st Friday,non active,453V,Greater Northside MD,PWE Public Works Engineering,Street and Drainage,Pothole,ROWM_StreetMain,18.0,Closed,2019-01-08 14:23:30,2019-01-10 14:22:00,2019-01-09 12:57:08,-1.06,Pothole-101003329694,3123597.46362,13857049.28968,,,e-mail In
12325982-101003329699,"3242 EWING, HOUSTON TX 77004",HARRIS,D,MACGREGOR,0660750030010,SE,SW,TUESDAY,3rd Friday,TUESDAY-A,533G,Greater Southeast MD,PWE Public Works Engineering,Street and Drainage,Pothole,ROWM_StreetMain,18.0,Closed,2019-01-08 14:25:27,2019-01-10 14:25:27,2019-01-09 11:32:08,-1.12,Pothole-101003329699,3121365.2942,13824212.26349,29.71167126,-95.36754242,Voice In
12326023-101003329852,Intersection 2000 BROADWAY ST&7900 ELVERA ST,,I,PECAN PARK,,,,,,,535F,East End MD,PWE Public Works Engineering,Street and Drainage,Pothole,ROWM_StreetMain,18.0,Closed,2019-01-08 15:10:33,2019-01-10 15:10:32,2019-01-09 15:27:08,-0.99,Pothole-101003329852,3149778.52543,13824072.88713,,,Voice In
12326036-101003329934,"31 GESSNER, HOUSTON TX 77024",HARRIS,G,MEMORIAL,0932320000013,,,,,,490N,,PWE Public Works Engineering,Street and Drainage,Pothole,ROWM_StreetMain,18.0,Closed,2019-01-08 15:34:48,2019-01-10 15:34:48,2019-01-09 09:37:08,-1.25,Pothole-101003329934,3065457.76329,13837709.587219998,29.75343197,-95.54233416,Voice In
325032-101003330229,,Unknown,Unknown,Unknown,Unknown,Unknown,Unknown,Unknown,Unknown,Unknown,Unknown,Unknown,PWE Public Works Engineering,Street and Drainage,Pothole,ROWM_StreetMain,18.0,Closed,2019-01-08 17:01:19,2019-01-11 08:00:00,2019-01-08 17:16:25,-2.61,Pothole - 325032,-95.39898,29.73804,Unknown,Unknown,WAP
12326089-101003330257,"1530 SUL ROSS, HOUSTON TX 77006",HARRIS,C,NEARTOWN - MONTROSE,1348550010009,NW,NE,MONDAY,1st Wednesday,MONDAY-A,492V,Montrose Management District,PWE Public Works Engineering,Street and Drainage,Pothole,ROWM_StreetMain,18.0,Closed,2019-01-08 17:14:57,2019-01-11 08:00:00,2019-01-17 12:57:18,6.21,Pothole-101003330257,3111096.42497,13833462.293219997,29.73797017,-95.39898,Unknown
12326091-101003330277,Intersection 6600 S ACRES DR&9300 MYKAWA RD,Harris County,I,GREATER HOBBY AREA,,,,,,,574G,HCID #9,PWE Public Works Engineering,Street and Drainage,Pothole,ROWM_StreetMain,18.0,Closed,2019-01-08 17:25:52,2019-01-11 08:00:00,2019-01-09 14:27:09,-1.73,Pothole-101003330277,3139953.3748,13799986.11805,29.64348062,-95.31142016,Voice In
12326093-101003330283,"8778 AIRPORT, HOUSTON TX 77061",HARRIS,I,GREATER HOBBY AREA,0342030010050,,,,,,575C,HCID #9,PWE Public Works Engineering,Street and Drainage,Pothole,ROWM_StreetMain,18.0,Closed,2019-01-08 17:28:45,2019-01-11 08:00:00,2019-01-09 14:12:11,-1.74,Pothole-101003330283,3155606.75393,13803935.46677,29.65296957,-95.26176803,Voice In
12326122-101003330441,Intersection 4800 WAKEFOREST ST&2800 WESTPARK DR,Harris County,C,GREENWAY / UPPER KIRBY AREA,,,,,,,492Y,HCID #3 (Upper Kirby),PWE Public Works Engineering,Street and Drainage,Pothole,ROWM_StreetMain,18.0,Closed,2019-01-08 19:27:26,2019-01-11 08:00:00,2019-01-09 09:17:08,-1.95,Pothole-101003330441,3103846.24131,13829916.00996,,,Voice In
12326127-101003330466,"2310 ELDRIDGE S, HOUSTON TX 77077",HARRIS,G,ELDRIDGE / WEST OAKS,1198140010001,,,,,,488T,,PWE Public Works Engineering,Street and Drainage,Pothole,ROWM_StreetMain,18.0,Closed,2019-01-08 20:12:01,2019-01-11 08:00:00,2019-01-09 13:22:13,-1.78,Pothole,,,29.74072164,-95.62373859,WEB
12326136-101003330535,"5634 GREENS, HOUSTON TX 77032",HARRIS,B,IAH / AIRPORT AREA,0791410020028,NE,NE,MONDAY,2nd Wednesday,MONDAY-B,374R,,PWE Public Works Engineering,Street and Drainage,Pothole,ROWM_StreetMain,18.0,Closed,2019-01-08 22:01:28,2019-01-11 08:00:00,2019-01-09 14:22:09,-1.73,Pothole - 325067,-95.30902,29.95213,29.95186345,-95.30896691,WAP
12326138-101003330544,"6223 GREENS, HOUSTON TX 77396",HARRIS,B,IAH / AIRPORT AREA,0854110000035,NE,NE,MONDAY,2nd Wednesday,MONDAY-B,375N,,PWE Public Works Engineering,Street and Drainage,Pothole,ROWM_StreetMain,18.0,Closed,2019-01-08 22:16:20,2019-01-11 08:00:00,2019-01-09 13:42:08,-1.76,Pothole - 325068,-95.29442,29.9522,29.95256496,-95.2946648,WAP
12326140-101003330557,"1903 HERMANN, HOUSTON TX 77004",HARRIS,D,MUSEUM PARK,1268600010001,,,,,,533B,Greater Southeast MD,PWE Public Works Engineering,Street and Drainage,Pothole,ROWM_StreetMain,18.0,Closed,2019-01-08 23:16:26,2019-01-11 08:00:00,2019-01-09 11:07:09,-1.87,Pothole - 325071,-95.38328,29.71759,29.71816454,-95.3830567,WAP
12326142-101003330573,"347 W FM 1960, HOUSTON TX 77090",HARRIS,B,,1205740010001,,,,,,332K,,PWE Public Works Engineering,Street and Drainage,Pothole,ROWM_StreetMain,18.0,Closed,2019-01-09 00:13:20,2019-01-10 09:13:19,2019-01-09 09:27:09,-0.99,Pothole - 324955,-95.43462,30.01929,30.01931556,-95.43438346,WAP
12326143-101003330580,"11980 MYKAWA, HOUSTON TX 77075",HARRIS,D,MINNETEX,0451610000068,,,,,,574Z,,PWE Public Works Engineering,Street and Drainage,Pothole,ROWM_StreetMain,18.0,Closed,2019-01-09 00:13:29,2019-01-10 09:13:29,2019-01-22 15:11:53,12.25,Pothole - 325001,-95.2994,29.60296,29.60351089,-95.29961433,WAP
12326148-101003330594,"4700 BEECHNUT, HOUSTON TX 77025",HARRIS,C,MEYERLAND AREA,0855730000009,,,,,,531Q,,PWE Public Works Engineering,Street and Drainage,Pothole,ROWM_StreetMain,18.0,Closed,2019-01-09 00:13:48,2019-01-10 09:13:48,2019-01-09 13:47:08,-0.81,Pothole - 325069,-95.45947,29.68936,29.68939229,-95.45960841,WAP
12326149-101003330595,"10550 W BELLFORT, HOUSTON TX 77031",HARRIS,K,BRAYS OAKS,0441040000022,,,,,,569C,HCID #5 (Brays Oaks),PWE Public Works Engineering,Street and Drainage,Pothole,ROWM_StreetMain,18.0,Closed,2019-01-09 00:13:50,2019-01-10 09:13:50,2019-01-09 15:32:08,-0.74,Pothole - 325073,-95.564,29.65332,29.65390405,-95.56415227,WAP
12326151-101003330615,"17007 GROSCHKE, HOUSTON TX 77084",HARRIS,A,ADDICKS PARK TEN,0481590000001,,,,,,447R,,PWE Public Works Engineering,Street and Drainage,Pothole,ROWM_StreetMain,18.0,Closed,2019-01-09 01:31:20,2019-01-10 10:31:20,2019-01-09 12:27:08,-0.92,Pothole - 325077,-95.65127,29.81274,29.81448622,-95.65055001,WAP
12326170-101003330656,"21908 KATY, HOUSTON TX 77449",,A,,,,,,,,485D,,PWE Public Works Engineering,Street and Drainage,Pothole,ROWM_StreetMain,18.0,Closed,2019-01-09 06:01:22,2019-01-10 15:01:22,2019-01-09 09:17:08,-1.24,Pothole - 325082,-95.75155,29.78542,29.78533769,-95.75206635,WAP
12326172-101003330660,"11631 ROARK, HOUSTON TX 77031",HARRIS,K,BRAYS OAKS,1205280010001,,,,,,569C,HCID #5 (Brays Oaks),PWE Public Works Engineering,Street and Drainage,Pothole,ROWM_StreetMain,18.0,Closed,2019-01-09 06:16:30,2019-01-10 15:16:30,2019-01-10 10:02:08,-0.22,Pothole - 325085,-95.56491,29.64922,29.64930883,-95.56459433,WAP
12326179-101003330707,Intersection 636 BERESFORD ST&13100 INDIANAPOLIS ST,,E,NORTHSHORE,,NE,NE,THURSDAY,1st Monday,non active,497A,,PWE Public Works Engineering,Street and Drainage,Pothole,ROWM_StreetMain,18.0,Closed,2019-01-09 07:23:31,2019-01-10 16:23:31,2019-01-10 14:52:10,-0.06,Pothole-101003330707,3175398.67104,13852355.33811,,,Voice In
12326187-101003330737,"1506 GARDENIA, HOUSTON TX 77018",HARRIS,C,CENTRAL NORTHWEST,0731000070047,NW,NE,TUESDAY,3rd Thursday,TUESDAY-B,452J,,PWE Public Works Engineering,Street and Drainage,Pothole,ROWM_StreetMain,18.0,Closed,2019-01-09 07:42:51,2019-01-10 16:42:00,2019-01-10 09:02:08,-0.32,Pothole-101003330737,3097695.07283,13865406.90125,29.82690473,-95.43812433,e-mail In
12326197-101003330792,Intersection 8000 KIRBY DR&1200 OLD SPANISH TRL,,K,ASTRODOME AREA,,,,,,,532L,,PWE Public Works Engineering,Street and Drainage,Pothole,ROWM_StreetMain,18.0,Closed,2019-01-09 08:13:38,2019-01-11 08:13:37,2019-01-10 11:32:09,-0.86,Pothole-101003330792,3107133.2367,13816900.00613,,,Voice In
12326204-101003330840,Intersection 10200 BRIAR FOREST DR&1500 SEAGLER RD,Harris County,G,BRIAR FOREST,,,,,,,489R,,PWE Public Works Engineering,Street and Drainage,Pothole,ROWM_StreetMain,18.0,Closed,2019-01-09 08:29:53,2019-01-11 08:29:53,2019-01-10 12:37:08,-0.83,Pothole-101003330840,3062032.72323,13835413.44647,29.74739828,-95.55333704,Voice In
12326207-101003330851,Intersection 600 W CANINO RD&7800 STUEBNER AIRLINE RD,,H,NORTHSIDE/NORTHLINE,,NE,NE,MONDAY,3rd Tuesday,,412V,,PWE Public Works Engineering,Street and Drainage,Pothole,ROWM_StreetMain,18.0,Closed,2019-01-09 08:33:17,2019-01-11 08:33:17,2019-01-10 10:42:09,-0.91,Pothole,,,,,WEB
12326225-101003330930,Intersection 3900 PINEMONT DR&5200 ROSSLYN RD,,C,CENTRAL NORTHWEST,,NW,NE,TUESDAY,4th Tuesday,,452E,,PWE Public Works Engineering,Street and Drainage,Pothole,ROWM_StreetMain,18.0,Closed,2019-01-09 08:59:12,2019-01-11 08:59:12,2019-01-10 09:47:08,-0.97,Pothole,,,,,WEB
12326228-101003330939,Intersection 6400 DEL MONTE DR&2112 S VOSS RD,,G,GREATER UPTOWN,,,,,,,490R,,PWE Public Works Engineering,Street and Drainage,Pothole,ROWM_StreetMain,18.0,Closed,2019-01-09 09:03:39,2019-01-11 09:03:39,2019-01-10 13:52:09,-0.8,Pothole,,,,,WEB
12326251-101003331058,Intersection 1100 W 24TH ST&2400 BEALL ST,Harris County,C,GREATER HEIGHTS,,NW,NW,THURSDAY,3rd Wednesday,THURSDAY-B,452U,,PWE Public Works Engineering,Street and Drainage,Pothole,ROWM_StreetMain,18.0,Closed,2019-01-09 09:46:30,2019-01-11 09:46:30,2019-01-10 08:37:08,-1.05,Pothole,,,29.8077564,-95.41813665,WEB
12326290-101003331190,Intersection 1460 GEMINI ST&1300 PEBBLE RUN WAY,Harris County,E,CLEAR LAKE,,,,,,,618Q,,PWE Public Works Engineering,Street and Drainage,Pothole,ROWM_StreetMain,18.0,Closed,2019-01-09 10:32:40,2019-01-11 10:32:40,2019-01-10 13:02:09,-0.9,Pothole,,,29.56031793,-95.11230461,WEB
12326312-101003331281,"5616 SAN JACINTO, HOUSTON TX 77004",HARRIS,D,MUSEUM PARK,1384450010001,,,,,,533A,Greater Southeast MD,PWE Public Works Engineering,Street and Drainage,Pothole,ROWM_StreetMain,18.0,Closed,2019-01-09 11:01:23,2019-01-11 11:01:23,2019-01-10 08:57:09,-1.09,Pothole - 325117,-95.38807,29.72447,29.7246165,-95.38836066,WAP
12326322-101003331325,"2750 GESSNER, HOUSTON TX 77080",HARRIS,A,SPRING BRANCH NORTH,1013390000009,,,,,,450J,Spring Branch MD,PWE Public Works Engineering,Street and Drainage,Pothole,ROWM_StreetMain,18.0,Closed,2019-01-09 11:16:30,2019-01-11 11:16:30,2019-01-10 13:47:08,-0.9,Pothole - 325123,-95.54484,29.8226,29.82234984,-95.54487565,WAP
12326330-101003331366,Intersection 2400 W HOLCOMBE BLVD&6800 MORNINGSIDE DR,,C,UNIVERSITY PLACE,,SW,SW,TUESDAY,3rd Monday,Tuesday-b,532G,,PWE Public Works Engineering,Street and Drainage,Pothole,ROWM_StreetMain,18.0,Closed,2019-01-09 11:31:21,2019-01-11 11:31:21,2019-01-10 10:17:08,-1.05,Pothole,,,,,Unknown
12326331-101003331367,"12604 NORTHBOROUGH, HOUSTON TX 77067",HARRIS,B,GREATER GREENSPOINT,1127550000002,,,,,,372Q,Greater Greenspoint MD,PWE Public Works Engineering,Street and Drainage,Pothole,ROWM_StreetMain,18.0,Closed,2019-01-09 11:31:22,2019-01-11 11:31:22,2019-01-09 15:37:08,-1.83,Pothole - 325126,-95.42237,29.952,29.95146259,-95.42210292,WAP
12326344-101003331435,"2900 N BRAESWOOD, HOUSTON TX 77030",HARRIS,C,BRAESWOOD,1307770010001,,,,,,532K,,PWE Public Works Engineering,Street and Drainage,Pothole,ROWM_StreetMain,18.0,Closed,2019-01-09 12:01:20,2019-01-11 12:01:20,2019-01-10 10:42:09,-1.05,Pothole - 325128,-95.42291,29.6975,29.69772503,-95.42246139,WAP
12326384-101003331580,"7312 MAIN, HOUSTON TX 77030",HARRIS,C,UNIVERSITY PLACE,0620180000012,SW,SE,TUESDAY,3rd Monday,TUESDAY-B,532M,,PWE Public Works Engineering,Street and Drainage,Pothole,ROWM_StreetMain,18.0,Closed,2019-01-09 12:44:20,2019-01-11 12:44:20,2019-01-10 09:42:08,-1.13,Pothole,,,29.70212004,-95.40895997,WEB
12326399-101003331608,Intersection 9800 KINNEY RD&10900 KIPP WAY DR,,F,ALIEF,,,,,,,529T,International MD,PWE Public Works Engineering,Street and Drainage,Pothole,ROWM_StreetMain,18.0,Closed,2019-01-09 13:00:01,2019-01-11 13:00:01,2019-01-10 10:52:08,-1.09,Pothole-101003331608,3057177.01968,13807567.28759,,,Voice In
12326398-101003331614,"7651 ANTOINE, HOUSTON TX 77088",HARRIS,A,GREATER INWOOD,1115390000001,NW,NW,TUESDAY,4th Monday,TUESDAY-B,411U,Near Northwest MD,PWE Public Works Engineering,Street and Drainage,Pothole,ROWM_StreetMain,18.0,Closed,2019-01-09 13:03:37,2019-01-11 13:03:37,2019-01-10 11:57:08,-1.05,Pothole,,,29.87575954,-95.47419273,Unknown
12326437-101003331760,"13410 SUNROSE, HOUSTON TX 77045",HARRIS,K,CENTRAL SOUTHWEST,0855610000002,SW,SW,FRIDAY,4th Monday,FRIDAY-B,571L,Five Corners HCID #10B,PWE Public Works Engineering,Street and Drainage,Pothole,ROWM_StreetMain,18.0,Closed,2019-01-09 14:09:12,2019-01-11 14:07:00,2019-01-10 08:52:09,-1.22,Pothole-101003331760,3091908.07325,13794472.71175,29.6324064,-95.46313205,Unknown
12326435-101003331763,Intersection 13100 FUQUA ST&10000 GALVESTON RD&2 GENOA RED BLUFF RD,Harris County,E,SOUTH BELT / ELLINGTON,,,,,,,576R,,PWE Public Works Engineering,Street and Drainage,Pothole,ROWM_StreetMain,18.0,Closed,2019-01-09 14:09:54,2019-01-11 14:09:54,2019-01-10 11:32:08,-1.11,Pothole-101003331763,3176350.89485,13793531.89047,29.62253477,-95.19755459,Voice In
12326454-101003331853,Intersection 1400 GEMINI ST&17100 SATURN LN,,E,CLEAR LAKE,,,,,,,618Q,,PWE Public Works Engineering,Street and Drainage,Pothole,ROWM_StreetMain,18.0,Closed,2019-01-09 14:34:39,2019-01-11 14:34:39,2019-01-10 12:57:09,-1.07,Pothole-101003331853,3204159.09121,13771563.264460003,,,Voice In
12326465-101003331905,"1115 MAROBY, HOUSTON TX 77017",HARRIS,E,MEADOWBROOK / ALLENDALE,0771770180009,SE,SE,MONDAY,1st Monday,MONDAY-B,535R,,PWE Public Works Engineering,Street and Drainage,Pothole,ROWM_StreetMain,18.0,Closed,2019-01-09 14:54:34,2019-01-11 14:54:33,2019-01-10 10:47:08,-1.17,Pothole-101003331905,3159690.68572,13818676.55048,29.6931282,-95.24742746,Voice In
12326469-101003331931,"5005 WESTPARK, BELLAIRE TX 77401",HARRIS,J,,0450290000150,,,,,,491Y,,PWE Public Works Engineering,Street and Drainage,Pothole,ROWM_StreetMain,18.0,Closed,2019-01-09 15:01:33,2019-01-11 15:01:33,2019-01-10 14:02:09,-1.04,Pothole - 325161,-95.46348,29.72628,29.72574643,-95.46249947,WAP
12326470-101003331930,"3663 BRIARPARK, HOUSTON TX 77042",HARRIS,F,WESTCHASE,1063500000004,,,,,,489Z,Westchase MD,PWE Public Works Engineering,Street and Drainage,Pothole,ROWM_StreetMain,18.0,Closed,2019-01-09 15:01:33,2019-01-11 15:01:33,2019-01-10 11:37:08,-1.14,Pothole - 325162,-95.54909,29.72482,29.7245641,-95.54843783,WAP
12326501-101003332118,Intersection 800 E 26TH ST&2600 CORNELL ST,Harris County,H,GREATER HEIGHTS,,NW,NW,THURSDAY,1st Friday,THURSDAY-A,453S,Greater Northside MD,PWE Public Works Engineering,Street and Drainage,Pothole,ROWM_StreetMain,18.0,Closed,2019-01-09 16:11:51,2019-01-11 16:11:51,2019-01-10 08:47:08,-1.31,Pothole,,,29.81065558,-95.389206,WEB
12326508-101003332156,Intersection 3600 HOUSTON AVE&3600 N MAIN ST&0 NORTH FWY,Harris County,H,GREATER HEIGHTS,,,,,,,493C,Greater Northside MD,PWE Public Works Engineering,Street and Drainage,Pothole,ROWM_StreetMain,18.0,Closed,2019-01-09 16:24:31,2019-01-11 16:24:31,2019-01-10 09:07:08,-1.3,Pothole,,,29.79017438,-95.37210839,WEB
12326510-101003332175,Intersection 500 W ALABAMA ST&3800 GARROTT ST,Harris County,C,NEARTOWN - MONTROSE,,NW,NE,MONDAY,1st Wednesday,MONDAY-A,493S,Montrose Management District,PWE Public Works Engineering,Street and Drainage,Pothole,ROWM_StreetMain,18.0,Closed,2019-01-09 16:33:36,2019-01-11 16:33:36,2019-01-10 14:47:10,-1.07,Pothole-101003332175,3115385.22774,13833923.89695,29.73887521,-95.38542701,Voice In
12326529-101003332266,Intersection 5200 GRIGGS RD&5800 MARTIN LUTHER KING BLVD,,D,GREATER OST / SOUTH UNION,,,,,,,534J,Greater Southeast MD,PWE Public Works Engineering,Street and Drainage,Pothole,ROWM_StreetMain,18.0,Closed,2019-01-09 17:13:15,2019-01-14 08:00:00,2019-01-10 10:07:08,-3.91,Pothole,,,,,WEB
12326537-101003332294,Intersection 7550 MEMORIAL DR&7550 N PICNIC LN,Harris County,C,WASHINGTON AVENUE COALITION / MEMORIAL P,,,,,,,491H,,PWE Public Works Engineering,Street and Drainage,Pothole,ROWM_StreetMain,18.0,Closed,2019-01-09 17:35:54,2019-01-14 08:00:00,2019-01-10 14:47:09,-3.72,Pothole,,,29.76787949,-95.44847874,Unknown
12326510-101003332321,Intersection 500 W ALABAMA ST&3800 GARROTT ST,Harris County,C,NEARTOWN - MONTROSE,,NW,NE,MONDAY,1st Wednesday,MONDAY-A,493S,Montrose Management District,PWE Public Works Engineering,Street and Drainage,Pothole,ROWM_StreetMain,18.0,Closed,2019-01-09 18:04:15,2019-01-14 08:00:00,2019-01-09 18:04:25,-4.58,Pothole,,,29.73887521,-95.38542701,WEB
12326545-101003332324,Intersection 5300 CHIMNEY ROCK RD&0 WESTPARK TOLL HWY,Harris County,J,GULFTON,,,,,,,491X,Uptown Houston MD,PWE Public Works Engineering,Street and Drainage,Pothole,ROWM_StreetMain,18.0,Closed,2019-01-09 18:07:29,2019-01-14 08:00:00,2019-01-10 14:52:09,-3.71,Pothole,,,29.72470451,-95.47650549,Unknown
12326576-101003332477,"6699 CHIMNEY ROCK, HOUSTON TX 77081",HARRIS,J,GULFTON,0370550160034,,,,,,531F,,PWE Public Works Engineering,Street and Drainage,Pothole,ROWM_StreetMain,18.0,Closed,2019-01-09 23:16:29,2019-01-14 08:00:00,2019-01-22 14:21:53,8.27,Pothole - 325232,-95.47624,29.70773,29.70800677,-95.47579817,WAP
12326582-101003332539,"7723 ANTOINE, HOUSTON TX 77088",HARRIS,A,GREATER INWOOD,1024380000006,NW,NW,TUESDAY,4th Monday,TUESDAY-B,411Q,Near Northwest MD,PWE Public Works Engineering,Street and Drainage,Pothole,ROWM_StreetMain,18.0,Closed,2019-01-10 03:11:02,2019-01-11 12:11:02,2019-01-10 12:17:09,-1.0,Pothole - 325108,-95.47386,29.87695,29.87688964,-95.47413584,WAP
12326585-101003332548,"6761 HILLCROFT, HOUSTON TX 77081",HARRIS,J,GULFTON,0370620030109,,,,,,531E,,PWE Public Works Engineering,Street and Drainage,Pothole,ROWM_StreetMain,18.0,Closed,2019-01-10 03:11:47,2019-01-11 12:11:47,2019-01-10 14:27:08,-0.91,Pothole - 325099,-95.49253,29.70559,29.70579585,-95.49256145,WAP
12326592-101003332573,Intersection 8554 ALMEDA RD&1200 S LOOP FWY W,,D,ASTRODOME AREA,,,,,,,533S,,PWE Public Works Engineering,Street and Drainage,Pothole,ROWM_StreetMain,18.0,Closed,2019-01-10 06:44:30,2019-01-11 15:44:30,2019-01-11 10:37:09,-0.21,Pothole-101003332573,3113620.08757,13812756.47111,,,Voice In
12326601-101003332603,"4417 CAMPBELL, HOUSTON TX 77041",HARRIS,A,FAIRBANKS / NORTHWEST CROSSING,0802120000005,NW,NW,FRIDAY,4th Thursday,FRIDAY-A,450F,Spring Branch MD,PWE Public Works Engineering,Street and Drainage,Pothole,ROWM_StreetMain,18.0,Closed,2019-01-10 07:24:38,2019-01-11 16:24:38,2019-01-11 13:27:08,-0.12,Pothole,,,29.83531887,-95.53004656,Unknown
12326717-101003332620,"2201 ST JOSEPH, HOUSTON TX 77003",HARRIS,I,DOWNTOWN,0020920000006,,,,,,493V,East Downtown MD,PWE Public Works Engineering,Street and Drainage,Pothole,ROWM_StreetMain,18.0,Closed,2019-01-10 07:38:48,2019-01-11 16:38:48,2019-01-11 10:32:08,-0.25,Pothole-101003332620,3123547.60578,13836060.060659997,29.74405075,-95.35950916,Voice In
12326712-101003332625,"8130 GESSNER, HOUSTON TX 77036",HARRIS,J,SHARPSTOWN,1378420010001,,,,,,530P,Sharpstown MD,PWE Public Works Engineering,Street and Drainage,Pothole,ROWM_StreetMain,18.0,Closed,2019-01-10 07:40:11,2019-01-11 16:40:11,2019-01-11 13:22:08,-0.14,Pothole-101003332625,3069528.44643,13813953.1426,29.68779808,-95.53173069,Voice In
12326613-101003332679,"705 APACHE, HOUSTON TX 77022",HARRIS,H,NORTHSIDE/NORTHLINE,0651060010008,NE,NW,MONDAY,3rd Monday,MONDAY-B,453L,Greater Northside MD,PWE Public Works Engineering,Street and Drainage,Pothole,ROWM_StreetMain,18.0,Closed,2019-01-10 08:12:11,2019-01-14 08:12:11,2019-01-11 14:32:08,-2.74,Pothole,,,29.83408443,-95.36393818,WEB
12326621-101003332744,Intersection 700 E 20TH ST&1900 BRADSHAW ST,Harris County,C,GREATER HEIGHTS,,NW,NE,THURSDAY,3rd Wednesday,THURSDAY-B,453S,,PWE Public Works Engineering,Street and Drainage,Pothole,ROWM_StreetMain,18.0,Closed,2019-01-10 08:35:51,2019-01-14 08:35:51,2019-01-11 13:52:08,-2.78,Pothole-101003332744,3113045.31248,13857574.98843,29.80408336,-95.39049708,Voice In
12326628-101003332797,"2327 BARTLETT, HOUSTON TX 77098",HARRIS,C,UNIVERSITY PLACE,0670150030005,SW,SE,TUESDAY,3rd Monday,TUESDAY-B,492Y,,PWE Public Works Engineering,Street and Drainage,Pothole,ROWM_StreetMain,18.0,Closed,2019-01-10 08:52:25,2019-01-14 08:52:25,2019-01-11 14:32:08,-2.76,Pothole,,,29.72695839,-95.41414789,WEB
12326638-101003332828,Intersection 9000 DOGWOOD LN&3300 MILLS BRANCH DR,Harris County,E,KINGWOOD AREA,,,,,,,297P,,PWE Public Works Engineering,Street and Drainage,Pothole,ROWM_StreetMain,18.0,Closed,2019-01-10 09:00:07,2019-01-14 09:00:07,2019-01-11 09:42:08,-2.97,Pothole-101003332828,3176122.45404,13959428.78997,30.07851741,-95.18122599,Voice In
12326662-101003332929,"12731 MEMORIAL, HOUSTON TX 77024",HARRIS,G,MEMORIAL,0843210000009,NW,NW,MONDAY,4th Wednesday,Monday-b,489H,,PWE Public Works Engineering,Street and Drainage,Pothole,ROWM_StreetMain,18.0,Closed,2019-01-10 09:32:55,2019-01-14 09:32:55,2019-01-11 12:37:08,-2.87,Pothole-101003332929,3060223.42206,13843478.347660003,29.76971372,-95.55828856,Voice In
12326693-101003333075,Intersection 5300 SOUTH FWY&2100 SOUTHMORE BLVD,,D,MACGREGOR,,SW,SW,TUESDAY,3rd Monday,Tuesday-b,533B,Greater Southeast MD,PWE Public Works Engineering,Street and Drainage,Pothole,ROWM_StreetMain,18.0,Closed,2019-01-10 10:19:38,2019-01-14 10:19:38,2019-01-11 10:37:09,-2.99,Pothole,,,,,WEB
12326694-101003333076,Intersection 1400 CROSBY ST&800 RUTHVEN ST,,C,FOURTH WARD,,,,,,,493P,,PWE Public Works Engineering,Street and Drainage,Pothole,ROWM_StreetMain,18.0,Closed,2019-01-10 10:19:44,2019-01-14 10:19:44,2019-01-11 08:37:08,-3.07,Pothole,,,,,WEB
12326713-101003333162,"1500 RANKIN, UNINCORPORATED TX 77032",HARRIS,B,,1296760010001,,,,,,373F,,PWE Public Works Engineering,Street and Drainage,Pothole,ROWM_StreetMain,18.0,Closed,2019-01-10 10:45:10,2019-01-14 10:45:10,2019-01-10 12:32:08,-3.93,Pothole,,,29.96478922,-95.37836642,WEB
12326768-101003333378,"8408 NORTHERN, HOUSTON TX 77071",HARRIS,K,BRAYS OAKS,0731910000015,SW,SW,THURSDAY,2nd Friday,THURSDAY-A,530X,HCID #5 (Brays Oaks),PWE Public Works Engineering,Street and Drainage,Pothole,ROWM_StreetMain,18.0,Closed,2019-01-10 12:08:34,2019-01-14 12:08:34,2019-01-11 12:42:08,-2.98,Pothole-101003333378,3072540.11691,13803402.551500002,29.65855011,-95.52323715,Voice In
12326785-101003333453,Intersection 3200 KINGS MOUNTAIN DR&5330 WILD BLACKBERRY DR,Harris County,E,KINGWOOD AREA,,,,,,,297P,,PWE Public Works Engineering,Street and Drainage,Pothole,ROWM_StreetMain,18.0,Closed,2019-01-10 12:30:30,2019-01-14 12:30:30,2019-01-11 09:27:08,-3.13,Pothole-101003333453,3173353.10065,13960903.476659998,30.08281855,-95.18982524,Voice In
12326792-101003333487,"841 B W 21ST, HOUSTON TX 77008",HARRIS,C,GREATER HEIGHTS,0200750000026,NW,NW,THURSDAY,3rd Wednesday,THURSDAY-B,452U,,PWE Public Works Engineering,Street and Drainage,Pothole,ROWM_StreetMain,18.0,Closed,2019-01-10 12:45:45,2019-01-14 12:43:00,2019-01-11 13:32:08,-2.97,Pothole-101003333487,3105627.85979,13857691.24279,29.80503031,-95.41386323,Voice In
12326921-101003333908,"1809 MASON, HOUSTON TX 77019",HARRIS,C,FOURTH WARD,1221820010007,NW,NE,MONDAY,1st Wednesday,MONDAY-A,493P,,PWE Public Works Engineering,Street and Drainage,Pothole,ROWM_StreetMain,18.0,Closed,2019-01-10 15:18:55,2019-01-14 15:18:55,2019-01-11 09:17:08,-3.25,Pothole,,,29.7523754,-95.38465024,WEB
12326940-101003333995,"7181 AIRPORT, HOUSTON TX 77061",HARRIS,I,GOLFCREST / BELLFORT / REVEILLE,0640520000057,SE,SE,FRIDAY,3rd Monday,FRIDAY-A,574D,HCID #9,PWE Public Works Engineering,Street and Drainage,Pothole,ROWM_StreetMain,18.0,Closed,2019-01-10 15:42:43,2019-01-14 15:42:43,2019-01-11 14:27:09,-3.05,Pothole-101003333995,3144538.9611,13803403.4078,29.65247531,-95.29665045,Voice In
12326976-101003334184,Intersection 7400 CAMBRIDGE ST&2000 OLD SPANISH TRL,,D,MEDICAL CENTER AREA,,,,,,,533J,,PWE Public Works Engineering,Street and Drainage,Pothole,ROWM_StreetMain,18.0,Closed,2019-01-10 16:47:22,2019-01-14 16:47:22,2019-01-11 09:57:08,-3.28,Pothole-101003334184,3113436.82974,13818851.57999,,,Voice In
12326999-101003334313,"5450 KINGLET, HOUSTON TX 77096",HARRIS,K,WESTBURY,0840440000007,SW,SE,THURSDAY,2nd Thursday,THURSDAY-A,531X,,PWE Public Works Engineering,Street and Drainage,Pothole,ROWM_StreetMain,18.0,Closed,2019-01-10 17:52:15,2019-01-15 08:00:00,2019-01-11 11:22:08,-3.86,Pothole,,,29.66257569,-95.47986908,WEB
12327007-101003334347,"928 B W 25TH, HOUSTON TX 77008",HARRIS,C,GREATER HEIGHTS,1326540010002,NW,NW,THURSDAY,3rd Wednesday,THURSDAY-B,452U,,PWE Public Works Engineering,Street and Drainage,Pothole,ROWM_StreetMain,18.0,Closed,2019-01-10 18:14:51,2019-01-15 08:00:00,2019-01-11 12:07:08,-3.83,Pothole-101003334347,3104726.04434,13858929.50016,29.80850988,-95.41658587,Voice In
12327008-101003334348,Intersection 10000 LONG POINT RD&1400 WITTE RD,,A,SPRING BRANCH WEST,,,,,,,450W,Spring Branch MD,PWE Public Works Engineering,Street and Drainage,Pothole,ROWM_StreetMain,18.0,Closed,2019-01-10 18:17:58,2019-01-15 08:00:00,2019-01-11 11:17:08,-3.86,Pothole-101003334348,3065708.02854,13852563.855740003,,,Voice In
12327019-101003334383,Intersection 4800 KATY FWY&2000 SHEPHERD DR,,C,WASHINGTON AVENUE COALITION / MEMORIAL P,,,,,,,492H,,PWE Public Works Engineering,Street and Drainage,Pothole,ROWM_StreetMain,18.0,Closed,2019-01-10 19:00:24,2019-01-15 08:00:00,2019-01-11 11:32:09,-3.85,Pothole-101003334383,3107274.07435,13847903.65049,,,Voice In
12327046-101003334479,"1717 TRAVIS, HOUSTON TX 77002",HARRIS,I,DOWNTOWN,0020870000017,,,,,,493Q,Houston Downtown,PWE Public Works Engineering,Street and Drainage,Pothole,ROWM_StreetMain,18.0,Closed,2019-01-11 01:08:11,2019-01-14 10:08:11,2019-01-11 09:17:08,-3.04,Pothole - 325244,-95.37025,29.75159,29.75151716,-95.37012382,WAP
12327050-101003334488,"4451 SPENCER, HOUSTON TX 77007",HARRIS,C,WASHINGTON AVENUE COALITION / MEMORIAL P,1249190010001,NW,NW,MONDAY,1st Wednesday,MONDAY-A,492H,,PWE Public Works Engineering,Street and Drainage,Pothole,ROWM_StreetMain,18.0,Closed,2019-01-11 01:08:24,2019-01-14 10:08:24,2019-01-11 10:42:08,-2.98,Pothole - 325268,-95.40614,29.77512,29.77503359,-95.40607504,WAP
12327051-101003334489,"3728 WASHINGTON, HOUSTON TX 77007",HARRIS,C,WASHINGTON AVENUE COALITION / MEMORIAL P,0210640000009,,,,,,492H,,PWE Public Works Engineering,Street and Drainage,Pothole,ROWM_StreetMain,18.0,Closed,2019-01-11 01:08:26,2019-01-14 10:08:26,2019-01-11 10:12:08,-3.0,Pothole - 325269,-95.39858,29.76969,29.76980652,-95.39844236,WAP
12327052-101003334490,"936 STUDEMONT, HOUSTON TX 77007",,H,WASHINGTON AVENUE COALITION / MEMORIAL P,,,,,,,493J,,PWE Public Works Engineering,Street and Drainage,Pothole,ROWM_StreetMain,18.0,Closed,2019-01-11 01:08:27,2019-01-14 10:08:27,2019-01-11 10:07:08,-3.0,Pothole - 325270,-95.39212,29.76779,29.7680473,-95.39203785,WAP
12327054-101003334492,"700 TELEPHONE, HOUSTON TX 77023",HARRIS,I,GREATER EASTWOOD,0410070100024,,,,,,494X,East End MD,PWE Public Works Engineering,Street and Drainage,Pothole,ROWM_StreetMain,18.0,Closed,2019-01-11 01:08:29,2019-01-14 10:08:29,2019-01-11 06:42:08,-3.14,Pothole - 325272,-95.33181,29.7352,29.73487274,-95.33161309,WAP
12327055-101003334494,"1320 FANNIN, HOUSTON TX 77002",HARRIS,I,DOWNTOWN,0020150000001,,,,,,493Q,Houston Downtown,PWE Public Works Engineering,Street and Drainage,Pothole,ROWM_StreetMain,18.0,Closed,2019-01-11 01:08:32,2019-01-14 10:08:32,2019-01-11 09:37:08,-3.02,Pothole - 325275,-95.36622,29.75404,29.75398257,-95.36623487,WAP
12327058-101003334504,"6651 MAIN, HOUSTON TX 77030",HARRIS,D,MEDICAL CENTER AREA,1331240000001,,,,,,532H,Greater Southeast MD,PWE Public Works Engineering,Street and Drainage,Pothole,ROWM_StreetMain,18.0,Closed,2019-01-11 01:08:46,2019-01-14 10:08:46,2019-01-11 11:47:08,-2.93,Pothole - 325295,-95.40321,29.70792,29.70815314,-95.40278388,WAP
12327059-101003334511,"7630 ANTOINE, HOUSTON TX 77088",HARRIS,A,GREATER INWOOD,1122990000004,NW,NW,TUESDAY,4th Monday,TUESDAY-B,411U,Near Northwest MD,PWE Public Works Engineering,Street and Drainage,Pothole,ROWM_StreetMain,18.0,Closed,2019-01-11 01:08:56,2019-01-14 10:08:55,2019-01-11 14:32:08,-2.82,Pothole - 325302,-95.47388,29.87487,29.87482472,-95.47358748,WAP
12327064-101003334516,"1757 BRANARD, HOUSTON TX 77098",HARRIS,C,NEARTOWN - MONTROSE,0540370000014,NW,NE,MONDAY,1st Wednesday,MONDAY-A,492V,Montrose Management District,PWE Public Works Engineering,Street and Drainage,Pothole,ROWM_StreetMain,18.0,Closed,2019-01-11 01:09:01,2019-01-14 10:09:01,2019-01-11 08:42:08,-3.06,Pothole - 325315,-95.40443,29.73655,29.73664581,-95.40433801,WAP
12327065-101003334518,"1829 D W MAIN, HOUSTON TX 77098",HARRIS,C,NEARTOWN - MONTROSE,1345100010009,NW,NE,MONDAY,1st Wednesday,MONDAY-A,492V,Montrose Management District,PWE Public Works Engineering,Street and Drainage,Pothole,ROWM_StreetMain,18.0,Closed,2019-01-11 01:09:03,2019-01-14 10:09:03,2019-01-11 11:07:08,-2.96,Pothole - 325320,-95.40622,29.7358,29.73579667,-95.40607226,WAP
12327093-101003334616,"7811 HELMERS, HOUSTON TX 77022",HARRIS,H,NORTHSIDE/NORTHLINE,0670540080004,NE,NW,MONDAY,3rd Monday,MONDAY-B,453L,Greater Northside MD,PWE Public Works Engineering,Street and Drainage,Pothole,ROWM_StreetMain,18.0,Closed,2019-01-11 07:45:53,2019-01-14 16:45:53,2019-01-14 10:57:09,-0.24,Pothole,,,29.83302051,-95.36618164,WEB
12327115-101003334687,"2100 YUPON, HOUSTON TX 77006",HARRIS,C,NEARTOWN - MONTROSE,1375780010001,,,,,,492R,Montrose Management District,PWE Public Works Engineering,Street and Drainage,Pothole,ROWM_StreetMain,18.0,Closed,2019-01-11 08:28:18,2019-01-15 08:28:18,2019-01-11 15:07:09,-3.72,Pothole,,,29.74733668,-95.39900664,Unknown
12327133-101003334765,"16650 S POST OAK, HOUSTON TX 77053",FORT BEND,K,FORT BEND HOUSTON,0305000000605907,,,,,,611B,,PWE Public Works Engineering,Street and Drainage,Pothole,ROWM_StreetMain,18.0,Closed,2019-01-11 08:53:36,2019-01-15 08:53:36,2019-01-14 09:57:09,-0.96,Pothole-101003334765,3088992.45212,13777904.55427,29.58710494,-95.47387808,Voice In
12327137-101003334790,Intersection 100 MCCARTY&3300 N MCCARTY ST&8500 WALLISVILLE RD,,B,PLEASANTVILLE AREA,,,,,,,495B,,PWE Public Works Engineering,Street and Drainage,Pothole,ROWM_StreetMain,18.0,Closed,2019-01-11 09:04:01,2019-01-15 09:04:01,2019-01-11 15:17:08,-3.74,Pothole-101003334790,3149009.83569,13853618.143,,,Voice In
12327158-101003334887,Intersection 3400 LOCKWOOD DR&5400 LUCILLE ST,,B,GREATER FIFTH WARD,,NE,NE,FRIDAY,1st Thursday,non active,494C,,PWE Public Works Engineering,Street and Drainage,Pothole,ROWM_StreetMain,18.0,Closed,2019-01-11 09:34:04,2019-01-15 09:34:04,2019-01-11 15:27:09,-3.75,Pothole,,,,,Unknown
12327186-101003335024,Intersection 450 S HEIGHTS BLVD&110 WAUGH DR,,H,WASHINGTON AVENUE COALITION / MEMORIAL P,,,,,,,492M,,PWE Public Works Engineering,Street and Drainage,Pothole,ROWM_StreetMain,18.0,Closed,2019-01-11 10:22:42,2019-01-15 10:22:42,2019-01-14 10:57:09,-0.98,Pothole-101003335024,3111032.76598,13843399.21232,,,Voice In
12327209-101003335106,"3300 SAN FELIPE, HOUSTON TX 77019",,G,AFTON OAKS / RIVER OAKS AREA,,,,,,,492P,,PWE Public Works Engineering,Street and Drainage,Pothole,ROWM_StreetMain,18.0,Closed,2019-01-11 10:57:56,2019-01-15 10:57:56,2019-01-14 14:17:09,-0.86,Pothole,,,29.74783006,-95.42676695,WEB
12327211-101003335111,Intersection 2400 BAY AREA BLVD&16300 SPACE CENTER BLVD,,E,CLEAR LAKE,,,,,,,618L,,PWE Public Works Engineering,Street and Drainage,Pothole,ROWM_StreetMain,18.0,Closed,2019-01-11 10:59:09,2019-01-15 10:59:09,2019-01-14 09:27:08,-1.06,Pothole,,,,,Unknown
12327222-101003335152,Intersection 5520 BURR OAK DR&6700 GROVECREST ST,Harris County,A,FAIRBANKS / NORTHWEST CROSSING,,,,,,,451A,Near Northwest MD,PWE Public Works Engineering,Street and Drainage,Pothole,ROWM_StreetMain,18.0,Closed,2019-01-11 11:15:31,2019-01-15 11:15:31,2019-01-14 09:17:09,-1.08,Pothole-101003335152,3080358.03631,13871975.74867,29.84640125,-95.49215705,Voice In
12327226-101003335156,Intersection 10600 HOMESTEAD RD&7200 LANGLEY RD,,B,EAST LITTLE YORK / HOMESTEAD,,NE,NE,TUESDAY,2nd Tuesday,,414Z,,PWE Public Works Engineering,Street and Drainage,Pothole,ROWM_StreetMain,18.0,Closed,2019-01-11 11:16:24,2019-01-15 11:16:24,2019-01-14 15:12:08,-0.84,Pothole-101003335156,3140832.15552,13881286.26811,,,Voice In
12327245-101003335264,Intersection 1600 LOCKWOOD DR&5550 LYONS AVE,,B,GREATER FIFTH WARD,,,,,,,494G,,PWE Public Works Engineering,Street and Drainage,Pothole,ROWM_StreetMain,18.0,Closed,2019-01-11 11:50:34,2019-01-15 11:49:00,2019-01-14 09:12:09,-1.11,Pothole-101003335264,3137181.48435,13848276.23636,,,Voice In
12327288-101003335457,Intersection 6200 CRESTMONT ST&5800 S LOOP FWY E,,D,SOUTH PARK,,SE,,FRIDAY,,,534P,,PWE Public Works Engineering,Street and Drainage,Pothole,ROWM_StreetMain,18.0,Closed,2019-01-11 12:54:31,2019-01-15 12:54:31,2019-01-11 15:27:09,-3.89,Pothole-101003335457,3132954.35927,13816146.82063,,,Voice In
12327296-101003335505,Intersection 800 BYRNE ST&2900 WATSON ST,Harris County,H,GREATER HEIGHTS,,NW,NW,THURSDAY,3rd Wednesday,THURSDAY-A,493B,Greater Northside MD,PWE Public Works Engineering,Street and Drainage,Pothole,ROWM_StreetMain,18.0,Closed,2019-01-11 13:18:26,2019-01-15 13:18:26,2019-01-14 13:22:09,-1.0,Pothole,,,29.78441809,-95.38072213,Unknown
12327297-101003335506,Intersection 4700 CANAL ST&2 LOCKWOOD DR&2 S LOCKWOOD DR,,H,SECOND WARD,,SE,SE,MONDAY,1st Wednesday,non active,494P,East End MD,PWE Public Works Engineering,Street and Drainage,Pothole,ROWM_StreetMain,18.0,Closed,2019-01-11 13:18:31,2019-01-15 13:18:31,2019-01-14 08:22:09,-1.21,Pothole-101003335506,3133943.97639,13837795.378060002,,,Voice In
12327322-101003335604,"8797 S GESSNER, HOUSTON TX 77074",HARRIS,J,BRAEBURN,0520150300023,,,,,,530P,Sharpstown MD,PWE Public Works Engineering,Street and Drainage,Pothole,ROWM_StreetMain,18.0,Closed,2019-01-11 13:49:51,2019-01-15 13:49:51,2019-01-14 11:32:09,-1.1,Pothole-101003335604,3070734.23831,13813079.309379997,29.68529767,-95.52801634,Voice In
12327346-101003335707,Intersection 2700 BRIARHURST DR&6200 WESTHEIMER RD,,J,MID WEST,,,,,,,491S,,PWE Public Works Engineering,Street and Drainage,Pothole,ROWM_StreetMain,18.0,Closed,2019-01-11 14:23:20,2019-01-15 14:23:20,2019-01-14 14:17:09,-1.0,Pothole-101003335707,3081321.07507,13832451.08756,,,Voice In
12327360-101003335787,"3099 ANTOINE, HOUSTON TX 77092",HARRIS,A,SPRING BRANCH EAST,0590130000087,NW,NE,FRIDAY,4th Thursday,FRIDAY-A,451P,,PWE Public Works Engineering,Street and Drainage,Pothole,ROWM_StreetMain,18.0,Closed,2019-01-11 14:43:51,2019-01-15 14:43:51,2019-01-14 13:57:09,-1.03,Pothole-101003335787,3086432.91951,13860875.08288,29.81538648,-95.47405831,Voice In
12327366-101003335804,Intersection 1244 CASTLEDALE DR&12800 W HARDY RD,Harris County,H,NORTHSIDE/NORTHLINE,,NE,NW,MONDAY,3rd Tuesday,MONDAY-B,413Q,,PWE Public Works Engineering,Street and Drainage,Pothole,ROWM_StreetMain,18.0,Closed,2019-01-11 14:48:49,2019-01-15 14:48:49,2019-01-14 13:27:09,-1.06,Pothole-101003335804,3118814.73729,13887378.70343,29.88551147,-95.36939705,Voice In
12327370-101003335812,Intersection 12400 W HARDY RD&1270 HOPPER RD,Harris County,H,NORTHSIDE/NORTHLINE,,NE,NW,MONDAY,3rd Tuesday,MONDAY-B,413Q,,PWE Public Works Engineering,Street and Drainage,Pothole,ROWM_StreetMain,18.0,Closed,2019-01-11 14:50:19,2019-01-15 14:50:19,2019-01-14 12:57:08,-1.08,Pothole-101003335812,3119343.56891,13885221.15427,29.87953612,-95.36794045,Voice In
12327373-101003335819,Intersection 8700 ALMEDA RD&2300 MANSARD ST,,D,SOUTH MAIN,,,,,,,533S,,PWE Public Works Engineering,Street and Drainage,Pothole,ROWM_StreetMain,18.0,Closed,2019-01-11 14:52:38,2019-01-15 14:52:38,2019-01-14 11:12:08,-1.15,Pothole-101003335819,3113423.62504,13812052.38427,,,Voice In
12327415-101003335990,Intersection 3800 OLD SPANISH TRL&6000 SCOTT ST,,D,GREATER OST / SOUTH UNION,,SE,SE,TUESDAY,3rd Tuesday,,533M,Greater Southeast MD,PWE Public Works Engineering,Street and Drainage,Pothole,ROWM_StreetMain,18.0,Closed,2019-01-11 15:50:07,2019-01-15 15:50:07,2019-01-14 13:52:08,-1.08,Pothole-101003335990,3124040.94173,13820884.44403,,,Voice In
12327482-101003336347,Intersection 2700 SAKOWITZ ST&5750 WALLISVILLE RD,Harris County,B,DENVER HARBOR / PORT HOUSTON,,NE,NE,FRIDAY,1st Tuesday,FRIDAY-B,494C,,PWE Public Works Engineering,Street and Drainage,Pothole,ROWM_StreetMain,18.0,Closed,2019-01-11 20:08:28,2019-01-16 08:00:00,2019-01-25 08:46:53,9.03,Pothole-101003336347,3137648.63236,13852275.51872,29.78740691,-95.31348415,Voice In
12327524-101003336503,Intersection 1000 HICKORY ST&1400 WASHINGTON AVE,Harris County,H,WASHINGTON AVENUE COALITION / MEMORIAL P,,,,,,,493L,,PWE Public Works Engineering,Street and Drainage,Pothole,ROWM_StreetMain,18.0,Closed,2019-01-12 09:27:35,2019-01-16 08:00:00,2019-01-14 11:57:08,-1.84,Pothole,,,29.76715094,-95.37152106,Unknown
12327527-101003336508,Intersection 1800 DART ST&100 GARVIN CT&1300 SILVER ST,,H,WASHINGTON AVENUE COALITION / MEMORIAL P,,,,,,,493F,,PWE Public Works Engineering,Street and Drainage,Pothole,ROWM_StreetMain,18.0,Closed,2019-01-12 09:30:31,2019-01-16 08:00:00,2019-01-14 13:57:09,-1.75,Pothole,,,,,Unknown
12327608-101003336770,"2710 HULLSMITH, HOUSTON TX 77063",HARRIS,F,MID WEST,1348800020003,,,,,,490V,,PWE Public Works Engineering,Street and Drainage,Pothole,ROWM_StreetMain,18.0,Closed,2019-01-12 13:51:24,2019-01-16 08:00:00,2019-01-14 13:22:09,-1.78,Pothole,,,29.73561604,-95.50749899,WEB
