CASE NUMBER,SR LOCATION,COUNTY,DISTRICT,NEIGHBORHOOD,TAX ID,TRASH QUAD,RECYCLE QUAD,TRASH DAY,HEAVY TRASH DAY,RECYCLE DAY,KEY MAP,MANAGEMENT DISTRICT,DEPARTMENT,DIVISION,SR TYPE,QUEUE,SLA,STATUS,SR CREATE DATE,DUE DATE,DATE CLOSED,OVERDUE,Title,x,y,LATITUDE,LONGITUDE,Channel Type
169124-101002444732,,Unknown,Unknown,Unknown,Unknown,Unknown,Unknown,Unknown,Unknown,Unknown,Unknown,Unknown,PWE Public Works Engineering,Street and Drainage,Pothole,ROWM_StreetMain,18.0,Closed,2017-01-01 02:50:14,2017-01-04 08:00:00,2017-01-03 16:23:59,-0.65,Pothole - 169124,3039822.35197,13858699.43597,Unknown,Unknown,WAP
101002444787,Intersection 4000 HOLLISTER ST&8800 PITNER RD,Harris County,A,SPRING BRANCH CENTRAL,,,,,,,450M,Spring Branch MD,PWE Public Works Engineering,Street and Drainage,Pothole,ROWM_StreetMain,18.0,Closed,2017-01-01 12:15:02,2017-01-04 08:00:00,2017-01-04 07:35:22,-0.02,Pothole,,,29.82933808,-95.50926972,Voice In
12091860-101002444789,Intersection 4000 HOLLISTER ST&8800 PITNER RD,Harris County,A,SPRING BRANCH CENTRAL,,,,,,,450M,Spring Branch MD,PWE Public Works Engineering,Street and Drainage,Pothole,ROWM_StreetMain,18.0,Closed,2017-01-01 12:15:33,2017-01-04 08:00:00,2017-01-03 10:35:12,-0.89,Pothole-101002444789,3075120.73511,13865611.30668,29.82933808,-95.50926972,Voice In
169162-101002444839,,Unknown,Unknown,Unknown,Unknown,Unknown,Unknown,Unknown,Unknown,Unknown,Unknown,Unknown,PWE Public Works Engineering,Street and Drainage,Pothole,ROWM_StreetMain,18.0,Closed,2017-01-01 15:10:17,2017-01-04 08:00:00,2017-01-03 16:56:07,-0.63,Pothole - 169162,3111495.09826,13834682.72793,Unknown,Unknown,WAP
169178-101002444861,,Unknown,Unknown,Unknown,Unknown,Unknown,Unknown,Unknown,Unknown,Unknown,Unknown,Unknown,PWE Public Works Engineering,Street and Drainage,Pothole,ROWM_StreetMain,18.0,Closed,2017-01-01 16:20:21,2017-01-04 08:00:00,2017-01-03 17:04:17,-0.62,Pothole - 169178,3111526.74145,13834675.795379998,Unknown,Unknown,WAP
12091910-101002444916,Intersection 7700 PARK PLACE BLVD&3900 POPLAR ST,Harris County,I,GOLFCREST / BELLFORT / REVEILLE,,SE,SE,TUESDAY,3rd Wednesday,TUESDAY-A,535N,,PWE Public Works Engineering,Street and Drainage,Pothole,ROWM_StreetMain,18.0,Closed,2017-01-01 21:03:51,2017-01-04 08:00:00,2017-01-06 09:35:05,2.07,Pothole,,,29.68535989,-95.2869338,Unknown
12091911-101002444917,Intersection 4706 BLALOCK RD&9400 W WINGFOOT RD,,A,FAIRBANKS / NORTHWEST CROSSING,,,,,,,450G,Spring Branch MD,PWE Public Works Engineering,Street and Drainage,Pothole,ROWM_StreetMain,18.0,Closed,2017-01-01 21:04:25,2017-01-04 08:00:00,2017-01-03 10:25:03,-0.9,Pothole-101002444917,3070321.28178,13869288.92793,,,Voice In
12091924-101002444976,Intersection 500 E 36TH ST&7600 N MAIN ST,Harris County,H,INDEPENDENCE HEIGHTS,,NW,NW,TUESDAY,2nd Friday,TUESDAY-A,453N,Greater Northside MD,PWE Public Works Engineering,Street and Drainage,Pothole,ROWM_StreetMain,18.0,Closed,2017-01-02 08:30:07,2017-01-04 08:30:06,2017-01-03 14:10:03,-0.76,Pothole-101002444976,3111948.54925,13862934.089260003,29.81890672,-95.39343268,Voice In
12091950-101002445031,"7306 JUTLAND, HOUSTON TX 77033",HARRIS,D,SOUTH PARK,0751890140027,SE,SE,FRIDAY,4th Thursday,FRIDAY-A,534S,HCID #10-A,PWE Public Works Engineering,Street and Drainage,Pothole,ROWM_StreetMain,18.0,Closed,2017-01-02 09:38:29,2017-01-04 09:38:29,2017-01-03 12:40:03,-0.87,Pothole-101002445031,3129385.96516,13812524.90235,29.67885872,-95.34343821,Voice In
169274-101002445169,,Unknown,Unknown,Unknown,Unknown,Unknown,Unknown,Unknown,Unknown,Unknown,Unknown,Unknown,PWE Public Works Engineering,Street and Drainage,Pothole,ROWM_StreetMain,18.0,Closed,2017-01-02 11:52:08,2017-01-04 11:52:08,2017-01-03 11:22:11,-1.02,Pothole - 169274,3107686.84566,13844161.247980002,Unknown,Unknown,WAP
12092051-101002445265,Intersection 1900 CROSS POINT AVE&9200 E POINT DR,Harris County,K,SOUTH MAIN,,,,,,,532V,,PWE Public Works Engineering,Street and Drainage,Pothole,ROWM_StreetMain,18.0,Closed,2017-01-02 13:25:27,2017-01-04 13:25:27,2017-01-09 13:30:08,5.0,Pothole,,,29.67076303,-95.4058838,WEB
12092064-101002445290,"2300 OAK LINKS, HOUSTON TX 77059",HARRIS,E,CLEAR LAKE,1169980010019,,,,,,618B,,PWE Public Works Engineering,Street and Drainage,Pothole,ROWM_StreetMain,18.0,Closed,2017-01-02 13:58:03,2017-01-04 13:58:03,2017-01-03 13:25:03,-1.02,Pothole - 169298,3197882.92958,13784193.43592,29.59523911,-95.13059929,WAP
12092084-101002445342,Intersection 3586 W LAKE HOUSTON PKWY&4100 OAKWOOD FOREST DR,Harris County,E,KINGWOOD AREA,,,,,,,297X,,PWE Public Works Engineering,Street and Drainage,Pothole,ROWM_StreetMain,18.0,Closed,2017-01-02 14:45:48,2017-01-04 14:45:47,2017-01-03 10:55:04,-1.16,Pothole-101002445342,3174544.32924,13952187.53936,30.0587581,-95.18695915,Voice In
12092115-101002445419,"1903 CROCKER, HOUSTON TX 77006",HARRIS,C,NEARTOWN - MONTROSE,1304800010002,NW,NE,MONDAY,1st Wednesday,MONDAY-A,493N,Montrose Management District,PWE Public Works Engineering,Street and Drainage,Pothole,ROWM_StreetMain,18.0,Closed,2017-01-02 16:20:20,2017-01-04 16:20:20,2017-01-05 07:35:05,0.64,Pothole - 169316,3113915.96018,13838414.291500002,29.75129352,-95.38953236,WAP
12092118-101002445423,"6001 FANNIN, HOUSTON TX 77004",HARRIS,D,MEDICAL CENTER AREA,0421790000004,,,,,,533A,Greater Southeast MD,PWE Public Works Engineering,Street and Drainage,Pothole,ROWM_StreetMain,18.0,Closed,2017-01-02 16:24:09,2017-01-04 16:24:09,2017-01-03 13:50:03,-1.11,Pothole - 169318,3113704.94747,13827423.47261,29.72087274,-95.39096849,WAP
12092138-101002445475,"3505 S DAIRY ASHFORD, HOUSTON TX 77082",HARRIS,F,ELDRIDGE / WEST OAKS,1164520000001,,,,,,488Z,,PWE Public Works Engineering,Street and Drainage,Pothole,ROWM_StreetMain,18.0,Closed,2017-01-02 17:51:03,2017-01-05 08:00:00,2017-01-03 09:45:03,-1.93,Pothole-101002445475,3046101.53232,13825996.47055,29.72279385,-95.60438303,Voice In
12092147-101002445507,Intersection 7300 CULLEN BLVD&4400 HOLMES RD,Harris County,D,GREATER OST / SOUTH UNION,,,,,,,533R,,PWE Public Works Engineering,Street and Drainage,Pothole,ROWM_StreetMain,18.0,Closed,2017-01-02 20:50:34,2017-01-05 08:00:00,2017-01-06 10:25:05,1.1,Pothole-101002445507,3125375.25337,13813818.37811,29.68275834,-95.35593606,Voice In
12092156-101002445555,"112 SABINE, HOUSTON TX 77007",,H,WASHINGTON AVENUE COALITION / MEMORIAL P,,,,,,,493K,Houston Downtown,PWE Public Works Engineering,Street and Drainage,Pothole,ROWM_StreetMain,18.0,Closed,2017-01-03 07:06:07,2017-01-04 16:06:06,2017-01-04 08:15:03,-0.33,Pothole - 169375,3118251.56516,13842939.507619997,29.76168951,-95.37503115,WAP
12092221-101002445758,"8545 BRAESWOOD, HOUSTON TX 77071",HARRIS,K,BRAYS OAKS,0971700000094,,,,,,530T,HCID #5 (Brays Oaks),PWE Public Works Engineering,Street and Drainage,Pothole,ROWM_StreetMain,18.0,Closed,2017-01-03 09:26:51,2017-01-05 09:26:51,2017-01-04 09:40:04,-0.99,Pothole-101002445758,3070954.75394,13807838.709619997,29.67087401,-95.52781209,Voice In
12092246-101002445851,"5155 W BELLFORT, HOUSTON TX 77035",HARRIS,K,WESTBURY,0840090000001,SW,SE,THURSDAY,2nd Thursday,THURSDAY-A,531X,,PWE Public Works Engineering,Street and Drainage,Pothole,ROWM_StreetMain,18.0,Closed,2017-01-03 10:16:09,2017-01-05 10:16:09,2017-01-04 10:35:04,-0.99,Pothole - 169407,3088843.34133,13805590.90173,29.6632143,-95.47148471,WAP
12092283-101002445961,"1725 TUAM, HOUSTON TX 77004",HARRIS,D,MIDTOWN,1201330010001,,,,,,493U,Midtown MD,PWE Public Works Engineering,Street and Drainage,Pothole,ROWM_StreetMain,18.0,Closed,2017-01-03 11:02:09,2017-01-05 11:02:09,2017-01-03 14:40:03,-1.85,Pothole - 169413,3120680.77665,13834270.21389,29.7396043,-95.3687927,WAP
12092288-101002445968,"1802 TUAM, HOUSTON TX 77004",HARRIS,D,MIDTOWN,1241010010001,NW,NE,MONDAY,1st Wednesday,MONDAY-A,493U,Midtown MD,PWE Public Works Engineering,Street and Drainage,Pothole,ROWM_StreetMain,18.0,Closed,2017-01-03 11:04:07,2017-01-05 11:04:07,2017-01-03 14:50:04,-1.84,Pothole - 169414,3120681.31136,13834212.17799,29.73913334,-95.36867045,WAP
12092291-101002445972,"1802 DREW, HOUSTON TX 77004",HARRIS,D,MIDTOWN,0190690000014,NW,NE,MONDAY,1st Wednesday,MONDAY-A,493U,Midtown MD,PWE Public Works Engineering,Street and Drainage,Pothole,ROWM_StreetMain,18.0,Closed,2017-01-03 11:06:10,2017-01-05 11:06:10,2017-01-04 08:55:04,-1.09,Pothole - 169415,3120826.58762,13834473.41188,29.73976797,-95.36815565,WAP
12092293-101002445975,"1719 DREW, HOUSTON TX 77004",HARRIS,D,MIDTOWN,0190770000014,NW,NE,MONDAY,1st Wednesday,MONDAY-A,493U,Midtown MD,PWE Public Works Engineering,Street and Drainage,Pothole,ROWM_StreetMain,18.0,Closed,2017-01-03 11:08:13,2017-01-05 11:08:12,2017-01-11 13:25:09,6.1,Pothole - 169419,3120848.24713,13834531.26513,29.74018215,-95.36828705,WAP
12092296-101002445983,"2600 HAMILTON, HOUSTON TX 77004",HARRIS,D,MIDTOWN,0190670000001,NW,NE,MONDAY,1st Wednesday,MONDAY-A,493U,Midtown MD,PWE Public Works Engineering,Street and Drainage,Pothole,ROWM_StreetMain,18.0,Closed,2017-01-03 11:10:27,2017-01-05 11:10:27,2017-01-04 13:20:04,-0.91,Pothole - 169421,3121133.66435,13834748.50803,29.74062568,-95.36707316,WAP
12092297-101002445984,"1721 DENNIS, HOUSTON TX 77004",HARRIS,D,MIDTOWN,0190780000018,NW,NE,MONDAY,1st Wednesday,MONDAY-A,493U,Midtown MD,PWE Public Works Engineering,Street and Drainage,Pothole,ROWM_StreetMain,18.0,Closed,2017-01-03 11:10:27,2017-01-05 11:10:27,2017-01-04 14:20:04,-0.87,Pothole - 169422,3120973.31167,13834712.36833,29.74075112,-95.36784089,WAP
12092299-101002445987,"2702 CHENEVERT, HOUSTON TX 77004",HARRIS,D,MIDTOWN,0190770000003,,,,,,493U,Midtown MD,PWE Public Works Engineering,Street and Drainage,Pothole,ROWM_StreetMain,18.0,Closed,2017-01-03 11:12:11,2017-01-05 11:12:10,2017-01-03 14:55:04,-1.85,Pothole - 169423,3120911.07981,13834661.70895,29.74054097,-95.36811563,WAP
12092300-101002445995,"8111 AIRPORT, HOUSTON TX 77061",HARRIS,I,GOLFCREST / BELLFORT / REVEILLE,0963840000001,SE,,TUESDAY,3rd Wednesday,,575C,HCID #9,PWE Public Works Engineering,Street and Drainage,Pothole,ROWM_StreetMain,18.0,Closed,2017-01-03 11:18:09,2017-01-05 11:18:09,2017-01-25 11:20:05,20.0,Pothole - 169424,3152851.98954,13805724.06587,29.65878024,-95.26991203,WAP
12092304-101002446001,"620 SHEPHERD, HOUSTON TX 77007",HARRIS,C,WASHINGTON AVENUE COALITION / MEMORIAL P,1332610020001,NW,NW,MONDAY,1st Wednesday,MONDAY-A,492M,,PWE Public Works Engineering,Street and Drainage,Pothole,ROWM_StreetMain,18.0,Closed,2017-01-03 11:21:18,2017-01-05 11:21:18,2017-01-04 11:00:04,-1.01,Pothole-101002446001,3107514.96166,13844292.48383,29.76804204,-95.40921263,Voice In
12092358-101002446188,Intersection 7314 ALBA ST&900 DOLLY WRIGHT ST,Harris County,B,ACRES HOME,,NW,NW,TUESDAY,3rd Friday,TUESDAY-B,412U,,PWE Public Works Engineering,Street and Drainage,Pothole,ROWM_StreetMain,18.0,Closed,2017-01-03 12:41:23,2017-01-05 12:41:23,2017-01-04 09:00:06,-1.15,Pothole-101002446188,3102313.4012,13880233.86536,29.86727135,-95.42213521,Voice In
12092361-101002446200,"1602 ENCLAVE, HOUSTON TX 77077",HARRIS,G,ELDRIDGE / WEST OAKS,0410360000373,,,,,,488Q,,PWE Public Works Engineering,Street and Drainage,Pothole,ROWM_StreetMain,18.0,Closed,2017-01-03 12:47:47,2017-01-05 12:47:47,2017-01-04 12:40:04,-1.01,Pothole,,,29.74857257,-95.61908546,Unknown
101002446217,"8320 DETROIT, HOUSTON TX 77017",HARRIS,I,PARK PLACE,0283340000006,SE,SE,MONDAY,1st Tuesday,MONDAY-B,535L,,PWE Public Works Engineering,Street and Drainage,Pothole,ROWM_StreetMain,18.0,Closed,2017-01-03 12:57:36,2017-01-05 12:57:00,2017-01-03 12:58:00,-2.0,Pothole-101002446217,3152095.62151,13818912.17632,29.69444379,-95.27131405,SMS In
12092371-101002446218,"2509 DRISCOLL, HOUSTON TX 77019",HARRIS,C,NEARTOWN - MONTROSE,0291720080009,NW,NE,MONDAY,1st Wednesday,MONDAY-A,492V,Montrose Management District,PWE Public Works Engineering,Street and Drainage,Pothole,ROWM_StreetMain,18.0,Closed,2017-01-03 12:57:36,2017-01-05 12:57:36,2017-01-04 09:40:04,-1.14,Pothole-101002446218,3108795.51717,13835375.459340002,29.74342354,-95.40604177,Voice In
12092383-101002446288,"9103 ALMEDA, HOUSTON TX 77054",HARRIS,D,ASTRODOME AREA,1267680010001,,,,,,533S,HCID #10-A,PWE Public Works Engineering,Street and Drainage,Pothole,ROWM_StreetMain,18.0,Closed,2017-01-03 13:34:33,2017-01-05 13:34:33,2017-01-06 10:25:05,0.87,Pothole,,,29.67329951,-95.39462992,WEB
12092393-101002446326,Intersection 12100 KIRKHOLM DR&10400 SAGEFOREST DR,Harris County,D,SOUTH BELT / ELLINGTON,,SE,SW,THURSDAY,2nd Thursday,THURSDAY-B,576Y,,PWE Public Works Engineering,Street and Drainage,Pothole,ROWM_StreetMain,18.0,Closed,2017-01-03 13:52:56,2017-01-05 13:52:56,2017-01-06 12:40:06,0.95,Pothole-101002446326,3169825.21926,13786157.968540002,29.60284808,-95.21883404,Voice In
12092441-101002446512,"2201 W OREM, HOUSTON TX 77047",HARRIS,D,CENTRAL SOUTHWEST,1302420010001,,,,,,572M,,PWE Public Works Engineering,Street and Drainage,Pothole,ROWM_StreetMain,18.0,Closed,2017-01-03 15:09:31,2017-01-05 15:09:30,2017-01-04 13:10:04,-1.08,Pothole-101002446512,3110736.07366,13793404.79492,29.62789212,-95.40399555,Voice In
12092444-101002446518,Intersection 3124 PECAN ST&4100 WYNONA ST,Harris County,I,GULFGATE RIVERVIEW / PINE VALLEY,,SE,SE,TUESDAY,3rd Thursday,TUESDAY-A,534M,,PWE Public Works Engineering,Street and Drainage,Pothole,ROWM_StreetMain,18.0,Closed,2017-01-03 15:13:11,2017-01-05 15:12:00,2017-01-04 10:00:04,-1.22,Pothole-101002446518,3140807.28484,13820654.67415,29.70021823,-95.30667869,SMS In
12092461-101002446563,"515 WOODBEND, HOUSTON TX 77079",HARRIS,G,MEMORIAL,1157920010004,NW,NW,MONDAY,4th Wednesday,MONDAY-A,489J,,PWE Public Works Engineering,Street and Drainage,Pothole,ROWM_StreetMain,18.0,Closed,2017-01-03 15:31:21,2017-01-05 15:30:00,2017-01-04 15:20:04,-1.01,Pothole-101002446563,3050401.25994,13841569.98501,29.76525916,-95.58941117,SMS In
12092473-101002446618,Intersection 1800 COMMONWEALTH ST&1500 NEVADA ST,Harris County,C,NEARTOWN - MONTROSE,,NW,NE,MONDAY,1st Wednesday,MONDAY-A,492R,Montrose Management District,PWE Public Works Engineering,Street and Drainage,Pothole,ROWM_StreetMain,18.0,Closed,2017-01-03 15:59:38,2017-01-05 15:59:38,2017-01-09 07:25:07,3.64,Pothole-101002446618,3111051.92211,13838218.43233,29.75104721,-95.39865874,Voice In
12092476-101002446640,Intersection 3000 N ELDRIDGE PKWY&13200 PATTERSON RD,Harris County,A,ADDICKS PARK TEN,,,,,,,448Q,,PWE Public Works Engineering,Street and Drainage,Pothole,ROWM_StreetMain,18.0,Closed,2017-01-03 16:22:28,2017-01-05 16:20:00,2017-01-10 15:15:09,4.95,Pothole-101002446640,3041138.19678,13858608.85152,29.81283577,-95.61704244,SMS In
12092498-101002446766,"1805 EL DORADO, HOUSTON TX 77062",HARRIS,E,CLEAR LAKE,1023320000021,,,,,,618F,,PWE Public Works Engineering,Street and Drainage,Pothole,ROWM_StreetMain,18.0,Closed,2017-01-03 17:32:09,2017-01-06 08:00:00,2017-01-04 13:10:04,-1.78,Pothole - 169500,3200577.05264,13777547.26391,29.57658222,-95.12296223,WAP
12092504-101002446788,Intersection 3600 PORTSMOUTH ST&3750 TIMMONS LN,Harris County,C,GREENWAY / UPPER KIRBY AREA,,,,,,,492W,,PWE Public Works Engineering,Street and Drainage,Pothole,ROWM_StreetMain,18.0,Closed,2017-01-03 17:50:48,2017-01-06 08:00:00,2017-01-04 09:05:05,-1.95,Pothole,,,29.73209386,-95.43638609999999,WEB
12092521-101002446879,"4503 ELLA, HOUSTON TX 77018",HARRIS,C,CENTRAL NORTHWEST,0731000110027,NW,NE,TUESDAY,3rd Thursday,TUESDAY-B,452K,,PWE Public Works Engineering,Street and Drainage,Pothole,ROWM_StreetMain,18.0,Closed,2017-01-03 19:40:19,2017-01-06 08:00:00,2017-01-04 10:05:04,-1.91,Pothole - 169531,3100242.42313,13867148.701059997,29.83164039,-95.4299897,WAP
12092522-101002446880,Intersection 1600 HOLMES RD&9400 KIRBY DR,Harris County,K,CENTRAL SOUTHWEST,,,,,,,532Y,,PWE Public Works Engineering,Street and Drainage,Pothole,ROWM_StreetMain,18.0,Closed,2017-01-03 19:41:23,2017-01-06 08:00:00,2017-01-04 14:00:04,-1.75,Pothole,,,29.66554454,-95.41313947,Unknown
12092525-101002446885,"225 HOLMES, HOUSTON TX 77045",HARRIS,K,CENTRAL SOUTHWEST,0420140000004,,,,,,572A,Five Corners HCID #10B,PWE Public Works Engineering,Street and Drainage,Pothole,ROWM_StreetMain,18.0,Closed,2017-01-03 19:51:32,2017-01-06 08:00:00,2017-01-04 11:40:04,-1.85,Pothole,,,29.65649775,-95.4375954,Unknown
12092526-101002446890,"5237 LINDSAY, HOUSTON TX 77023",HARRIS,I,GREATER EASTWOOD,0530020000013,SE,SE,MONDAY,1st Wednesday,MONDAY-A,494X,East End MD,PWE Public Works Engineering,Street and Drainage,Pothole,ROWM_StreetMain,18.0,Closed,2017-01-03 20:05:06,2017-01-06 08:00:00,2017-01-09 07:30:07,2.98,Pothole-101002446890,3135423.85729,13831559.665459998,29.73065896,-95.32254788,Voice In
12092565-101002447085,"2528 W HOLCOMBE, HOUSTON TX 77030",HARRIS,C,UNIVERSITY PLACE,0582300000021,SW,SE,TUESDAY,3rd Monday,TUESDAY-B,532G,,PWE Public Works Engineering,Street and Drainage,Pothole,ROWM_StreetMain,18.0,Closed,2017-01-04 08:20:23,2017-01-06 08:20:23,2017-01-05 11:55:05,-0.85,Pothole - 169589,3105634.86298,13821761.906659998,29.7063714,-95.41733101,WAP
12092570-101002447101,Intersection 20322 KENTUCKY TRACE&20600 ROBERTS CEMETARY RD&20372 ROBERTS CEMETERY RD,Harris County,,,,,,,,,285M,,PWE Public Works Engineering,Street and Drainage,Pothole,ROWM_StreetMain,18.0,Closed,2017-01-04 08:33:19,2017-01-06 08:33:19,2017-01-04 11:10:04,-1.89,Pothole,,,30.08359708,-95.76317598,Unknown
12092618-101002447242,"13434 MCGRATH, HOUSTON TX 77047",HARRIS,K,CENTRAL SOUTHWEST,0451860000132,SW,SW,FRIDAY,4th Thursday,FRIDAY-B,573S,Five Corners HCID #10B,PWE Public Works Engineering,Street and Drainage,Pothole,ROWM_StreetMain,18.0,Closed,2017-01-04 09:48:10,2017-01-06 09:48:10,2017-01-23 09:00:05,16.97,Pothole - 169608,3115757.76521,13787803.59992,29.61182573,-95.3889421,WAP
12092625-101002447256,"1741 S LOOP W, HOUSTON TX 77054",HARRIS,K,SOUTH MAIN,1186110010001,,,,,,532V,HCID #8,PWE Public Works Engineering,Street and Drainage,Pothole,ROWM_StreetMain,18.0,Closed,2017-01-04 09:52:05,2017-01-06 09:52:05,2017-01-04 14:35:04,-1.8,Pothole - 169609,3109312.16374,13811811.144979997,29.67814072,-95.40375688,WAP
12092688-101002447501,Intersection 5400 CHEVY CHASE DR&2200 YORKTOWN ST,Harris County,G,GREATER UPTOWN,,NW,NW,MONDAY,4th Wednesday,MONDAY-A,491U,,PWE Public Works Engineering,Street and Drainage,Pothole,ROWM_StreetMain,18.0,Closed,2017-01-04 11:53:05,2017-01-06 11:53:04,2017-01-24 08:00:04,17.84,Pothole-101002447501,3088241.8004,13835411.9924,29.74524503,-95.47077937,Voice In
12092745-101002447699,"1802 W ALABAMA, HOUSTON TX 77098",HARRIS,C,NEARTOWN - MONTROSE,0542290000028,NW,NE,MONDAY,1st Wednesday,MONDAY-A,492V,Montrose Management District,PWE Public Works Engineering,Street and Drainage,Pothole,ROWM_StreetMain,18.0,Closed,2017-01-04 13:36:04,2017-01-06 13:36:04,2017-01-05 11:10:05,-1.1,Pothole - 169647,3109261.38572,13833750.75339,29.73882538,-95.40476383,WAP
12092772-101002447793,"825 W 17TH, HOUSTON TX 77008",HARRIS,C,GREATER HEIGHTS,0201210000054,NW,NE,THURSDAY,3rd Wednesday,THURSDAY-B,452U,,PWE Public Works Engineering,Street and Drainage,Pothole,ROWM_StreetMain,18.0,Closed,2017-01-04 14:30:20,2017-01-06 14:30:20,2017-01-05 10:35:04,-1.16,Pothole,,,29.80096218,-95.41331274,WEB
12092791-101002447836,"719 WILLARD, HOUSTON TX 77006",HARRIS,C,NEARTOWN - MONTROSE,0370730010003,NW,NE,MONDAY,1st Wednesday,MONDAY-A,493N,Montrose Management District,PWE Public Works Engineering,Street and Drainage,Pothole,ROWM_StreetMain,18.0,Closed,2017-01-04 14:44:06,2017-01-06 14:44:06,2017-01-24 07:55:05,17.72,Pothole - 169662,3113909.97629,13838231.23249,29.75069739,-95.38953881,WAP
12092794-101002447842,"714 WILLARD, HOUSTON TX 77006",HARRIS,C,NEARTOWN - MONTROSE,0091010000006,NW,NE,MONDAY,1st Wednesday,MONDAY-A,493N,Montrose Management District,PWE Public Works Engineering,Street and Drainage,Pothole,ROWM_StreetMain,18.0,Closed,2017-01-04 14:46:11,2017-01-06 14:46:11,2017-01-05 14:55:05,-0.99,Pothole - 169664,3114035.09704,13838264.63487,29.75102205,-95.38923745,WAP
12092811-101002447889,"5610 CLINTON, HOUSTON TX 77020",HARRIS,H,DENVER HARBOR / PORT HOUSTON,1210520010002,,,,,,494L,East End MD,PWE Public Works Engineering,Street and Drainage,Pothole,ROWM_StreetMain,18.0,Closed,2017-01-04 15:01:55,2017-01-06 14:59:00,2017-01-05 10:20:05,-1.19,Pothole-101002447889,3138789.55364,13842808.27781,29.76128605,-95.31083038,e-mail In
12092820-101002447918,"6111 STOREY, HOUSTON TX 77396",HARRIS,B,IAH / AIRPORT AREA,0710440110284,NE,NE,MONDAY,2nd Wednesday,MONDAY-B,375S,,PWE Public Works Engineering,Street and Drainage,Pothole,ROWM_StreetMain,18.0,Closed,2017-01-04 15:14:52,2017-01-06 15:14:52,2017-01-05 10:15:05,-1.21,Pothole,,,29.93733219,-95.29554833,WEB
12092842-101002448002,"5959 BONHOMME, HOUSTON TX 77036",HARRIS,J,SHARPSTOWN,0930640000009,,,,,,530C,Sharpstown MD,PWE Public Works Engineering,Street and Drainage,Pothole,ROWM_StreetMain,18.0,Closed,2017-01-04 15:53:46,2017-01-06 15:53:45,2017-01-05 11:05:05,-1.2,Pothole-101002448002,3075199.94033,13823958.896540003,29.71483853,-95.5129364,Voice In
12092862-101002448064,Intersection 5200 W ALABAMA ST&2800 SAGE RD,,G,GREATER UPTOWN,,,,,,,491U,Uptown Houston MD,PWE Public Works Engineering,Street and Drainage,Pothole,ROWM_StreetMain,18.0,Closed,2017-01-04 16:20:42,2017-01-06 16:20:42,2017-01-05 10:00:05,-1.26,Pothole-101002448064,3089589.07396,13832827.697379997,,,Voice In
12092873-101002448094,"4534 CALHOUN, HOUSTON TX 77004",HARRIS,D,GREATER THIRD WARD,0410070130130,,,,,,494W,Greater Southeast MD,PWE Public Works Engineering,Street and Drainage,Pothole,ROWM_StreetMain,18.0,Closed,2017-01-04 16:32:11,2017-01-06 16:32:11,2017-01-05 10:30:05,-1.25,Pothole - 169689,3130465.74852,13829960.41395,29.72588229,-95.33766957,WAP
12092879-101002448105,"12113 FONDREN PLACE, HOUSTON TX 77071",HARRIS,K,BRAYS OAKS,1157960040020,SW,SW,THURSDAY,2nd Friday,THURSDAY-A,570F,HCID #5 (Brays Oaks),PWE Public Works Engineering,Street and Drainage,Pothole,ROWM_StreetMain,18.0,Closed,2017-01-04 16:38:41,2017-01-06 16:38:41,2017-01-05 13:05:05,-1.15,Pothole,,,29.64679838,-95.53237485,WEB
12092896-101002448189,"1035 HERKIMER, HOUSTON TX 77008",HARRIS,C,GREATER HEIGHTS,0202050000036,NW,NE,THURSDAY,3rd Wednesday,THURSDAY-B,452Z,,PWE Public Works Engineering,Street and Drainage,Pothole,ROWM_StreetMain,18.0,Closed,2017-01-04 17:30:31,2017-01-09 08:00:00,2017-01-05 11:20:05,-3.86,Pothole - 169705,3108225.65545,13852499.839340003,29.79042207,-95.40638813,WAP
12092900-101002448197,"5005 CENTER, HOUSTON TX 77007",HARRIS,C,WASHINGTON AVENUE COALITION / MEMORIAL P,0072350000008,NW,NW,MONDAY,1st Wednesday,MONDAY-A,492G,,PWE Public Works Engineering,Street and Drainage,Pothole,ROWM_StreetMain,18.0,Closed,2017-01-04 17:42:11,2017-01-09 08:00:00,2017-01-05 13:00:05,-3.79,Pothole - 169708,3106604.55985,13845418.34637,29.77096335,-95.41202676,WAP
12092919-101002448284,"5334 WASHINGTON, HOUSTON TX 77007",HARRIS,C,WASHINGTON AVENUE COALITION / MEMORIAL P,0330010000001,NW,NW,MONDAY,1st Wednesday,MONDAY-A,492G,,PWE Public Works Engineering,Street and Drainage,Pothole,ROWM_StreetMain,18.0,Closed,2017-01-04 19:30:26,2017-01-09 08:00:00,2017-01-05 15:00:05,-3.71,Pothole - 169722,3105212.28622,13845166.87616,29.77077181,-95.41611185,WAP
12092920-101002448286,"1001 MOY, HOUSTON TX 77007",HARRIS,C,WASHINGTON AVENUE COALITION / MEMORIAL P,0330010000009,NW,NW,MONDAY,1st Wednesday,MONDAY-A,492G,,PWE Public Works Engineering,Street and Drainage,Pothole,ROWM_StreetMain,18.0,Closed,2017-01-04 19:32:09,2017-01-09 08:00:00,2017-01-05 13:25:04,-3.77,Pothole - 169723,3105842.24339,13845167.55627,29.77071547,-95.41451699,WAP
12092923-101002448305,Intersection 11700 BEAMER RD&11400 HALL RD,Harris County,,,,,,,,,576X,,PWE Public Works Engineering,Street and Drainage,Pothole,ROWM_StreetMain,18.0,Closed,2017-01-04 19:58:34,2017-01-09 08:00:00,2017-01-11 15:30:09,2.31,Pothole,,,29.5967025,-95.22762302,Unknown
12092931-101002448357,"1137 N ELDRIDGE, HOUSTON TX 77079",HARRIS,A,SPRING BRANCH WEST,0410360010749,,,,,,448Y,HCID #4 (Energy Corridor),PWE Public Works Engineering,Street and Drainage,Pothole,ROWM_StreetMain,18.0,Closed,2017-01-05 00:06:08,2017-01-06 09:06:07,2017-01-05 14:05:06,-0.79,Pothole - 169752,3041140.11113,13849418.72231,29.78795226,-95.61830085,WAP
12092932-101002448360,"6843 LOST THICKET, HOUSTON TX 77085",HARRIS,K,CENTRAL SOUTHWEST,1156360010001,SW,SE,THURSDAY,3rd Wednesday,THURSDAY-A,571J,Five Corners HCID #10B,PWE Public Works Engineering,Street and Drainage,Pothole,ROWM_StreetMain,18.0,Closed,2017-01-05 00:40:19,2017-01-06 09:40:19,2017-01-05 11:40:05,-0.92,Pothole - 169753,3083405.19854,13793020.514259998,29.62900602,-95.48975357,WAP
169767-101002448390,,Unknown,Unknown,Unknown,Unknown,Unknown,Unknown,Unknown,Unknown,Unknown,Unknown,Unknown,PWE Public Works Engineering,Street and Drainage,Pothole,ROWM_StreetMain,18.0,Closed,2017-01-05 07:02:12,2017-01-06 16:02:12,2017-01-05 11:40:24,-1.18,Pothole - 169767,3096676.72599,13866140.55521,Unknown,Unknown,WAP
12092980-101002448554,Intersection 2200 BELLEFONTAINE ST&7100 MONTCLAIR DR,Harris County,C,UNIVERSITY PLACE,,SW,SE,TUESDAY,3rd Monday,TUESDAY-B,532H,,PWE Public Works Engineering,Street and Drainage,Pothole,ROWM_StreetMain,18.0,Closed,2017-01-05 08:57:00,2017-01-09 08:57:00,2017-01-06 10:55:05,-2.92,Pothole,,,29.70464522,-95.40884385,WEB
12093013-101002448612,"7005 ROSWELL, HOUSTON TX 77022",HARRIS,H,NORTHSIDE/NORTHLINE,0510540110025,NE,NE,MONDAY,2nd Friday,MONDAY-B,453Q,Greater Northside MD,PWE Public Works Engineering,Street and Drainage,Pothole,ROWM_StreetMain,18.0,Closed,2017-01-05 09:18:24,2017-01-09 09:18:24,2017-01-06 13:30:05,-2.83,Pothole-101002448612,3119402.33749,13864718.79239,29.82317815,-95.36976295,Voice In
12092999-101002448662,"7902 GOODE, HOUSTON TX 77012",HARRIS,I,MAGNOLIA PARK,0252420000031,SE,SW,MONDAY,1st Thursday,Monday-a,535A,East End MD,PWE Public Works Engineering,Street and Drainage,Pothole,ROWM_StreetMain,18.0,Closed,2017-01-05 09:37:47,2017-01-09 09:37:46,2017-01-13 12:00:10,4.1,Pothole-101002448662,3147140.2702,13830052.972940002,29.72549953,-95.28580014,Voice In
12093011-101002448729,"318 ADDICKS HOWELL, HOUSTON TX 77079",HARRIS,G,MEMORIAL,1244480010001,,,,,,488A,HCID #4 (Energy Corridor),PWE Public Works Engineering,Street and Drainage,Pothole,ROWM_StreetMain,18.0,Closed,2017-01-05 09:58:52,2017-01-09 09:58:52,2017-01-06 10:05:05,-3.0,Pothole,,,29.78283843,-95.64207085,WEB
12093025-101002448772,Intersection 10300 BAUMAN RD&300 ROBMORE ST,Harris County,H,NORTHSIDE/NORTHLINE,,NE,NW,MONDAY,3rd Monday,MONDAY-B,453C,Greater Northside MD,PWE Public Works Engineering,Street and Drainage,Pothole,ROWM_StreetMain,18.0,Closed,2017-01-05 10:19:22,2017-01-09 10:19:22,2017-01-13 15:15:10,4.21,Pothole-101002448772,3118364.05118,13876149.93685,29.85468661,-95.37191766,Voice In
12093062-101002448907,Intersection 3900 W ALABAMA ST&3000 WESLAYAN ST,Harris County,C,GREENWAY / UPPER KIRBY AREA,,NW,SW,MONDAY,,MONDAY-A,492S,,PWE Public Works Engineering,Street and Drainage,Pothole,ROWM_StreetMain,18.0,Closed,2017-01-05 11:17:42,2017-01-09 11:17:42,2017-01-06 12:55:06,-2.93,Pothole,,,29.73820685,-95.44160462,WEB
12093080-101002448950,Intersection 1600 CHANTILLY LN&4320 PINEY WOODS DR,,C,CENTRAL NORTHWEST,,,,,,Tuesday-a,452J,,PWE Public Works Engineering,Street and Drainage,Pothole,ROWM_StreetMain,18.0,Closed,2017-01-05 11:37:55,2017-01-09 11:37:55,2017-01-06 13:55:05,-2.9,Pothole-101002448950,3096668.18709,13866133.23444,,,Voice In
101002448957,Intersection 4700 ALMEDA RD&1900 BLODGETT ST,,D,MACGREGOR,,SW,SW,TUESDAY,3rd Monday,Tuesday-b,493X,Greater Southeast MD,PWE Public Works Engineering,Street and Drainage,Pothole,ROWM_StreetMain,18.0,Closed,2017-01-05 11:41:21,2017-01-09 11:41:20,2017-01-05 11:41:30,-4.0,Pothole,,,,,Unknown
12093100-101002449025,"5713 KANSAS, HOUSTON TX 77007",HARRIS,C,WASHINGTON AVENUE COALITION / MEMORIAL P,1353630010001,NW,NW,THURSDAY,3rd Wednesday,THURSDAY-B,492B,,PWE Public Works Engineering,Street and Drainage,Pothole,ROWM_StreetMain,18.0,Closed,2017-01-05 12:20:24,2017-01-09 12:20:24,2017-01-17 10:20:04,7.92,Pothole - 169820,3102376.00859,13849196.970899997,29.78181919,-95.42498758,WAP
12093126-101002449113,"1065 W RANKIN, HOUSTON TX 77067",HARRIS,B,GREATER GREENSPOINT,1342460010001,,,,,,372F,Greater Greenspoint MD,PWE Public Works Engineering,Street and Drainage,Pothole,ROWM_StreetMain,18.0,Closed,2017-01-05 13:14:10,2017-01-09 13:14:10,2017-01-06 14:05:05,-2.96,Pothole - 169829,3097039.61525,13915741.31872,29.96490756,-95.43603252,WAP
12093146-101002449182,"5133 LINDSAY, HOUSTON TX 77023",HARRIS,I,GREATER EASTWOOD,0530010000010,SE,SE,MONDAY,1st Wednesday,MONDAY-A,494X,East End MD,PWE Public Works Engineering,Street and Drainage,Pothole,ROWM_StreetMain,18.0,Closed,2017-01-05 13:46:15,2017-01-09 13:46:14,2017-01-06 09:55:06,-3.16,Pothole - 169834,3134867.76449,13831701.35781,29.73117259,-95.3242277,WAP
12093149-101002449189,"5118 CLAREMONT, HOUSTON TX 77023",HARRIS,I,GREATER EASTWOOD,0530070000005,SE,SE,MONDAY,1st Wednesday,MONDAY-A,494X,East End MD,PWE Public Works Engineering,Street and Drainage,Pothole,ROWM_StreetMain,18.0,Closed,2017-01-05 13:48:09,2017-01-09 13:48:09,2017-01-24 14:15:06,15.02,Pothole - 169835,3134576.5044,13831465.21065,29.73026341,-95.3253117,WAP
12093154-101002449198,"5130 CLAREMONT, HOUSTON TX 77023",HARRIS,I,GREATER EASTWOOD,0530070000008,SE,SE,MONDAY,1st Wednesday,MONDAY-A,494X,East End MD,PWE Public Works Engineering,Street and Drainage,Pothole,ROWM_StreetMain,18.0,Closed,2017-01-05 13:54:07,2017-01-09 13:54:07,2017-01-26 08:35:06,16.78,Pothole - 169839,3134708.22531,13831367.30496,29.73012351,-95.32485,WAP
12093155-101002449199,"5206 LINDSAY, HOUSTON TX 77023",HARRIS,I,GREATER EASTWOOD,0530050000002,SE,SE,MONDAY,1st Wednesday,MONDAY-A,494X,East End MD,PWE Public Works Engineering,Street and Drainage,Pothole,ROWM_StreetMain,18.0,Closed,2017-01-05 13:54:12,2017-01-09 13:54:12,2017-01-06 09:55:06,-3.17,Pothole - 169840,3135020.62609,13831553.94343,29.73062328,-95.32389959,WAP
12093160-101002449213,"6203 IRVINGTON, HOUSTON TX 77022",HARRIS,H,NEAR NORTHSIDE,0630810010050,NE,NE,MONDAY,2nd Friday,MONDAY-B,453Q,Greater Northside MD,PWE Public Works Engineering,Street and Drainage,Pothole,ROWM_StreetMain,18.0,Closed,2017-01-05 14:03:58,2017-01-09 14:03:57,2017-01-06 12:00:05,-3.09,Pothole-101002449213,3122108.04468,13861848.30075,29.81505704,-95.36151556,Voice In
12093205-101002449364,Intersection 1700 LA BRANCH ST&1500 PEASE ST,Harris County,I,DOWNTOWN,,,,,,,493Q,Houston Downtown,PWE Public Works Engineering,Street and Drainage,Pothole,ROWM_StreetMain,18.0,Closed,2017-01-05 15:19:27,2017-01-09 15:19:27,2017-01-06 11:40:05,-3.15,Pothole,,,29.74913401,-95.36475371,WEB
12093241-101002449483,"3719 RANCH, HOUSTON TX 77026",HARRIS,B,GREATER FIFTH WARD,0300240120008,NE,NW,FRIDAY,1st Thursday,FRIDAY-B,494B,,PWE Public Works Engineering,Street and Drainage,Pothole,ROWM_StreetMain,18.0,Closed,2017-01-05 16:24:40,2017-01-09 16:24:40,2017-01-06 13:30:05,-3.12,Pothole-101002449483,3131434.92268,13851482.19353,29.78576346,-95.33314252,Voice In
12093308-101002449882,"6901 ALABONSON, HOUSTON TX 77088",HARRIS,A,GREATER INWOOD,1329590010001,NW,NW,TUESDAY,4th Monday,TUESDAY-B,411T,Near Northwest MD,PWE Public Works Engineering,Street and Drainage,Pothole,ROWM_StreetMain,18.0,Closed,2017-01-06 08:05:16,2017-01-10 08:05:16,2017-01-09 11:45:08,-0.85,Pothole,,,29.86757772,-95.48099538,WEB
12093309-101002449890,Intersection 200 ALDINE BENDER RD&16100 IMPERIAL VALLEY DR,,B,GREATER GREENSPOINT,,NE,NE,MONDAY,3rd Tuesday,,372Z,,PWE Public Works Engineering,Street and Drainage,Pothole,ROWM_StreetMain,18.0,Closed,2017-01-06 08:08:54,2017-01-10 08:08:54,2017-01-09 14:05:08,-0.75,Pothole,,,,,WEB
12093313-101002449900,"10123 TANNER, HOUSTON TX 77041",HARRIS,A,CARVERDALE,0803100000027,NW,NW,FRIDAY,4th Friday,FRIDAY-A,450A,Spring Branch MD,PWE Public Works Engineering,Street and Drainage,Pothole,ROWM_StreetMain,18.0,Closed,2017-01-06 08:16:06,2017-01-10 08:16:06,2017-01-09 10:50:08,-0.89,Pothole - 169942,3064096.6917,13872834.34241,29.84979022,-95.54339439,WAP
12093314-101002449907,"1111 LOCKWOOD, HOUSTON TX 77020",HARRIS,B,GREATER FIFTH WARD,0402620000021,NE,NW,FRIDAY,1st Thursday,FRIDAY-B,494L,,PWE Public Works Engineering,Street and Drainage,Pothole,ROWM_StreetMain,18.0,Closed,2017-01-06 08:19:43,2017-01-10 08:19:43,2017-01-13 13:05:21,3.2,Pothole,,,29.76876711,-95.31646998,WEB
101002449948,Intersection 1700 LA BRANCH ST&1500 PEASE ST,Harris County,I,DOWNTOWN,,,,,,,493Q,Houston Downtown,PWE Public Works Engineering,Street and Drainage,Pothole,ROWM_StreetMain,18.0,Closed,2017-01-06 08:53:31,2017-01-10 08:53:31,2017-01-06 08:53:40,-4.0,Pothole,,,29.74913401,-95.36475371,WEB
12093437-101002450504,Intersection 4500 EDMUND ST&600 EGAN ST,Harris County,B,GREATER FIFTH WARD,,NE,NW,FRIDAY,1st Thursday,FRIDAY-B,494K,,PWE Public Works Engineering,Street and Drainage,Pothole,ROWM_StreetMain,18.0,Closed,2017-01-06 13:59:07,2017-01-10 13:59:06,2017-01-09 09:25:08,-1.19,Pothole-101002450504,3134207.8315,13844811.57925,29.76718903,-95.3250657,Voice In
12093467-101002450642,Intersection 5800 W RIDGECREEK DR&15900 SAMOA WAY,,K,FORT BEND HOUSTON,,SW,SW,FRIDAY,4th Wednesday,,571X,,PWE Public Works Engineering,Street and Drainage,Pothole,ROWM_StreetMain,18.0,Closed,2017-01-06 15:07:00,2017-01-10 15:07:00,2017-01-09 12:00:08,-1.13,Pothole-101002450642,3089044.40608,13781179.01065,,,Voice In
12093486-101002450790,"9950 TANNER, HOUSTON TX 77041",HARRIS,A,CARVERDALE,0131810000011,NW,NW,FRIDAY,4th Friday,FRIDAY-A,450A,,PWE Public Works Engineering,Street and Drainage,Pothole,ROWM_StreetMain,18.0,Closed,2017-01-06 16:10:29,2017-01-10 16:10:29,2017-01-09 11:00:08,-1.22,Pothole - 170017,3065368.51713,13872866.18589,29.85050169,-95.53939062,WAP
12093504-101002450879,Intersection 2900 S WAYSIDE DR&6100 WHEELER ST,,I,GULFGATE RIVERVIEW / PINE VALLEY,,,,,,,534G,,PWE Public Works Engineering,Street and Drainage,Pothole,ROWM_StreetMain,18.0,Closed,2017-01-06 17:00:48,2017-01-11 08:00:00,2017-01-09 11:40:07,-1.85,Pothole-101002450879,3137503.26389,13823612.6538,,,Voice In
12093521-101002450985,"3311 LELIA, HOUSTON TX 77026",HARRIS,B,GREATER FIFTH WARD,0042350100004,NE,NW,FRIDAY,1st Thursday,FRIDAY-B,494A,,PWE Public Works Engineering,Street and Drainage,Pothole,ROWM_StreetMain,18.0,Closed,2017-01-06 18:31:39,2017-01-11 08:00:00,2017-01-18 09:25:05,7.06,Pothole-101002450985,3130499.75362,13852629.6476,29.78899798,-95.33597597,Voice In
12093539-101002451125,"1617 STUART, HOUSTON TX 77004",HARRIS,D,MIDTOWN,1238160010009,NW,NE,MONDAY,1st Wednesday,MONDAY-A,493U,Midtown MD,PWE Public Works Engineering,Street and Drainage,Pothole,ROWM_StreetMain,18.0,Closed,2017-01-06 22:37:57,2017-01-11 08:00:00,2017-01-09 09:30:07,-1.94,Pothole,,,29.73765631,-95.37187303,WEB
12093597-101002451203,Intersection 7400 W GREENS RD&8200 MILLS RD,,A,WILLOWBROOK,,,,,,,370N,,PWE Public Works Engineering,Street and Drainage,Pothole,ROWM_StreetMain,18.0,Closed,2017-01-07 07:08:23,2017-01-11 08:00:00,2017-01-17 14:10:04,6.26,Pothole,,,,,WEB
12093736-101002451391,"6926 ANTOINE, HOUSTON TX 77091",HARRIS,A,GREATER INWOOD,1180110010001,,,,,,411Y,Near Northwest MD,PWE Public Works Engineering,Street and Drainage,Pothole,ROWM_StreetMain,18.0,Closed,2017-01-07 09:20:19,2017-01-11 08:00:00,2017-01-09 12:55:08,-1.8,Pothole - 170082,3086147.53506,13878142.3738,29.8626921,-95.4729596,WAP
12093757-101002451416,"4000 WILLOWBEND, HOUSTON TX 77025",HARRIS,K,WILLOW MEADOWS / WILLOWBEND AREA,0420150000086,,,,,,532W,,PWE Public Works Engineering,Street and Drainage,Pothole,ROWM_StreetMain,18.0,Closed,2017-01-07 09:38:13,2017-01-11 08:00:00,2017-01-09 13:15:08,-1.78,Pothole - 170087,3098818.60327,13806525.3868,29.66485608,-95.44000868,WAP
12093900-101002451636,Intersection 700 BUNKER HILL RD&11816 TAYLORCREST RD,Harris County,,,,,,,,,490F,,PWE Public Works Engineering,Street and Drainage,Pothole,ROWM_StreetMain,18.0,Closed,2017-01-07 12:50:46,2017-01-11 08:00:00,2017-01-09 09:55:09,-1.92,Pothole,,,29.77322579,-95.5315553,WEB
12094042-101002451850,"1815 COHN, HOUSTON TX 77007",HARRIS,C,WASHINGTON AVENUE COALITION / MEMORIAL P,0512150040001,NW,NW,MONDAY,1st Wednesday,MONDAY-A,492G,,PWE Public Works Engineering,Street and Drainage,Pothole,ROWM_StreetMain,18.0,Closed,2017-01-07 15:04:14,2017-01-11 08:00:00,2017-01-09 10:00:16,-1.92,Pothole - 170133,3103164.78902,13847508.81913,29.77674135,-95.42229991,WAP
12094181-101002452062,Intersection 1800 MAURY ST&1900 MILLS ST,,H,NEAR NORTHSIDE,,,,,,,493H,Greater Northside MD,PWE Public Works Engineering,Street and Drainage,Pothole,ROWM_StreetMain,18.0,Closed,2017-01-07 18:20:03,2017-01-11 08:00:00,2017-01-13 15:20:11,2.31,Pothole,,,,,Unknown
12094210-101002452103,"815 FAIRVIEW, HOUSTON TX 77006",HARRIS,C,NEARTOWN - MONTROSE,0140680000010,NW,NE,MONDAY,1st Wednesday,MONDAY-A,493N,Montrose Management District,PWE Public Works Engineering,Street and Drainage,Pothole,ROWM_StreetMain,18.0,Closed,2017-01-07 19:36:08,2017-01-11 08:00:00,2017-01-09 09:35:07,-1.93,Pothole - 170186,3113816.66826,13837233.443420002,29.74798227,-95.39012821,WAP
12094247-101002452150,Intersection 1300 FEDERAL RD&12600 MARKET ST,Harris County,E,NORTHSHORE,,NE,NE,THURSDAY,1st Monday,THURSDAY-A,496L,,PWE Public Works Engineering,Street and Drainage,Pothole,ROWM_StreetMain,18.0,Closed,2017-01-08 00:06:41,2017-01-11 08:00:00,2017-01-09 13:55:08,-1.75,Pothole,,,29.76724814,-95.21326433,WEB
12094369-101002452329,"8535 TRIPLE CROWN, HOUSTON TX 77071",HARRIS,K,BRAYS OAKS,1136240000001,SW,SW,THURSDAY,3rd Thursday,THURSDAY-A,570F,HCID #5 (Brays Oaks),PWE Public Works Engineering,Street and Drainage,Pothole,ROWM_StreetMain,18.0,Closed,2017-01-08 11:38:07,2017-01-11 08:00:00,2017-01-09 11:05:08,-1.87,Pothole - 170240,3071278.12734,13798204.33757,29.64418566,-95.52751926,WAP
12094480-101002452513,"4580 S WAYSIDE, HOUSTON TX 77087",HARRIS,I,GULFGATE RIVERVIEW / PINE VALLEY,0410070330021,,,,,,534L,,PWE Public Works Engineering,Street and Drainage,Pothole,ROWM_StreetMain,18.0,Closed,2017-01-08 16:22:11,2017-01-11 08:00:00,2017-01-09 14:45:08,-1.72,Pothole - 170290,3136579.38132,13819245.75689,29.69682575,-95.3206194,WAP
170292-101002452516,,Unknown,Unknown,Unknown,Unknown,Unknown,Unknown,Unknown,Unknown,Unknown,Unknown,Unknown,PWE Public Works Engineering,Street and Drainage,Pothole,ROWM_StreetMain,18.0,Closed,2017-01-08 16:26:03,2017-01-11 08:00:00,2017-01-09 09:59:33,-1.92,Pothole - 170292,3136855.40573,13814154.535260003,Unknown,Unknown,WAP
12094485-101002452526,Intersection 0 N IH 610 LOOP E&3900 N MCCARTY ST,Harris County,I,EL DORADO / OATES PRAIRIE,,,,,,,455Y,,PWE Public Works Engineering,Street and Drainage,Pothole,ROWM_StreetMain,18.0,Closed,2017-01-08 16:37:29,2017-01-11 08:00:00,2017-01-09 15:05:07,-1.7,Pothole-101002452526,3150845.8622,13856205.012499997,29.7970572,-95.27150429,Voice In
12094549-101002452676,Intersection 8200 DETROIT ST&3100 HASTINGS ST,Harris County,I,PARK PLACE,,SE,SE,MONDAY,1st Tuesday,MONDAY-B,535K,,PWE Public Works Engineering,Street and Drainage,Pothole,ROWM_StreetMain,18.0,Closed,2017-01-08 21:52:15,2017-01-11 08:00:00,2017-01-09 13:00:07,-1.79,Pothole,,,29.69576271,-95.2749176,Unknown
12094598-101002452814,"2522 HARLEM, HOUSTON TX 77020",HARRIS,B,GREATER FIFTH WARD,0131140000006,,,,,,494C,,PWE Public Works Engineering,Street and Drainage,Pothole,ROWM_StreetMain,18.0,Closed,2017-01-09 08:29:08,2017-01-11 08:29:08,2017-01-10 13:20:08,-0.8,Pothole,,,29.78494354,-95.31651803,WEB
12094642-101002452915,"1209 WACO, HOUSTON TX 77020",HARRIS,B,GREATER FIFTH WARD,0090300000007,NE,NW,FRIDAY,1st Thursday,FRIDAY-B,494F,,PWE Public Works Engineering,Street and Drainage,Pothole,ROWM_StreetMain,18.0,Closed,2017-01-09 09:16:12,2017-01-11 09:16:11,2017-01-10 11:15:08,-0.92,Pothole - 170374,3133685.76323,13846460.29215,29.77188988,-95.32676475,WAP
12094681-101002453024,Intersection 6200 MOLINE ST&5700 S WAYSIDE DR,Harris County,I,GOLFCREST / BELLFORT / REVEILLE,,,,,,,534Q,,PWE Public Works Engineering,Street and Drainage,Pothole,ROWM_StreetMain,18.0,Closed,2017-01-09 09:58:01,2017-01-11 09:57:00,2017-01-10 13:35:08,-0.85,Pothole-101002453024,3136879.58797,13814175.22877,29.68274868,-95.31968678,SMS In
12094688-101002453060,Intersection 15000 LAWNDALE ST&100 SCARBOROUGH LN,Harris County,,,,,,,,,536F,,PWE Public Works Engineering,Street and Drainage,Pothole,ROWM_StreetMain,18.0,Closed,2017-01-09 10:07:18,2017-01-11 10:07:17,2017-01-10 11:10:09,-0.96,Pothole-101002453060,3165580.63359,13824920.97369,29.70977083,-95.22825116,Voice In
12094704-101002453126,"6045 WHEELER, HOUSTON TX 77023",,I,GULFGATE RIVERVIEW / PINE VALLEY,,,,,,,534G,,PWE Public Works Engineering,Street and Drainage,Pothole,ROWM_StreetMain,18.0,Closed,2017-01-09 10:28:11,2017-01-11 10:28:11,2017-01-10 11:25:08,-0.96,Pothole - 170400,3137458.73085,13823543.02304,29.70894483,-95.31727896,WAP
12094735-101002453210,"1120 HACKNEY, HOUSTON TX 77023",HARRIS,I,LAWNDALE / WAYSIDE,0630010010006,,,,,,494Y,East End MD,PWE Public Works Engineering,Street and Drainage,Pothole,ROWM_StreetMain,18.0,Closed,2017-01-09 11:03:58,2017-01-11 11:03:58,2017-01-10 09:55:08,-1.05,Pothole,,,29.72840472,-95.31949491,WEB
12094756-101002453246,"4122 VIVIAN, UNINCORPORATED TX 77093",HARRIS,,,0710650330484,,,,,,414T,Aldine PID,PWE Public Works Engineering,Street and Drainage,Pothole,ROWM_StreetMain,18.0,Closed,2017-01-09 11:21:23,2017-01-11 11:21:23,2017-01-09 14:50:08,-1.86,Pothole,,,29.87163866,-95.32609933,WEB
12094812-101002453431,Intersection 12328 ECHO LN&800 TWILIGHT LN,Harris County,E,LAKE HOUSTON,,NE,NE,TUESDAY,2nd Wednesday,TUESDAY-A,338D,,PWE Public Works Engineering,Street and Drainage,Pothole,ROWM_StreetMain,18.0,Closed,2017-01-09 12:34:15,2017-01-11 12:34:15,2017-01-09 14:45:08,-1.91,Pothole,,,30.05338665,-95.11369324,Unknown
12094844-101002453504,"2602 STAPLES, HOUSTON TX 77026",HARRIS,B,GREATER FIFTH WARD,0270350000001,NE,NW,FRIDAY,1st Thursday,FRIDAY-B,494B,,PWE Public Works Engineering,Street and Drainage,Pothole,ROWM_StreetMain,18.0,Closed,2017-01-09 13:08:05,2017-01-11 13:08:05,2017-01-18 09:30:06,6.85,Pothole - 170478,3130854.28939,13851522.32103,29.78597678,-95.33482758,WAP
12094888-101002453626,"815 FAIRVIEW, HOUSTON TX 77006",HARRIS,C,NEARTOWN - MONTROSE,0140680000010,NW,NE,MONDAY,1st Wednesday,MONDAY-A,493N,Montrose Management District,PWE Public Works Engineering,Street and Drainage,Pothole,ROWM_StreetMain,18.0,Closed,2017-01-09 14:01:14,2017-01-11 14:00:00,2017-01-10 11:10:09,-1.12,Pothole-101002453626,3113791.83132,13837187.88157,29.74798227,-95.39012821,Voice In
12094910-101002453681,"2222 DOWLING, HOUSTON TX 77003",HARRIS,D,GREATER THIRD WARD,0021640000001,SE,SW,TUESDAY,3rd Friday,TUESDAY-A,493U,Greater Southeast MD,PWE Public Works Engineering,Street and Drainage,Pothole,ROWM_StreetMain,18.0,Closed,2017-01-09 14:25:24,2017-01-11 14:25:24,2017-01-10 09:15:09,-1.22,Pothole-101002453681,3123213.05264,13834725.33072,29.74041062,-95.36069379,Voice In
101002453695,Intersection 14400 CHADBOURNE DR&630 KICKERILLO DR,Harris County,G,MEMORIAL,,,,,,,488H,,PWE Public Works Engineering,Street and Drainage,Pothole,ROWM_StreetMain,18.0,Closed,2017-01-09 14:30:25,2017-01-11 14:30:25,2017-01-09 14:30:35,-2.0,Pothole,,,29.76879695,-95.59994506,WEB
12094944-101002453788,Intersection 1606 BISSONNET ST&5300 MANDELL ST,,C,UNIVERSITY PLACE,,,,,,Tuesday-b,492Z,,PWE Public Works Engineering,Street and Drainage,Pothole,ROWM_StreetMain,18.0,Closed,2017-01-09 15:08:58,2017-01-11 15:08:58,2017-01-10 09:45:08,-1.22,Pothole-101002453788,3111041.20001,13829004.781139998,,,Voice In
12094950-101002453822,Intersection 4318 DU PONT ST&5900 GOFORTH ST,Harris County,D,GREATER OST / SOUTH UNION,,SE,SW,TUESDAY,3rd Tuesday,TUESDAY-A,533M,,PWE Public Works Engineering,Street and Drainage,Pothole,ROWM_StreetMain,18.0,Closed,2017-01-09 15:24:47,2017-01-11 15:24:47,2017-01-10 10:25:08,-1.21,Pothole-101002453822,3126628.63505,13820582.76747,29.70124431,-95.35132604,Voice In
12094970-101002453885,"7703 HEMLOCK, HOUSTON TX 77012",HARRIS,I,PECAN PARK,0760770020028,SE,SE,MONDAY,1st Tuesday,MONDAY-B,535F,East End MD,PWE Public Works Engineering,Street and Drainage,Pothole,ROWM_StreetMain,18.0,Closed,2017-01-09 15:46:04,2017-01-11 15:46:03,2017-01-10 11:20:09,-1.18,Pothole-101002453885,3148057.04166,13825016.40099,29.71157567,-95.28341731,Voice In
12095007-101002454020,"2300 OLD SPANISH, HOUSTON TX 77054",HARRIS,D,ASTRODOME AREA,1158280190002,,,,,,533J,,PWE Public Works Engineering,Street and Drainage,Pothole,ROWM_StreetMain,18.0,Closed,2017-01-09 16:36:06,2017-01-11 16:36:06,2017-01-10 13:20:08,-1.14,Pothole - 170517,3114694.47392,13819560.486579997,29.69827253,-95.38827871,WAP
12095006-101002454019,"5416 CHAUCER, HOUSTON TX 77005",HARRIS,C,UNIVERSITY PLACE,0600460130009,SW,SE,TUESDAY,3rd Monday,TUESDAY-B,532C,,PWE Public Works Engineering,Street and Drainage,Pothole,ROWM_StreetMain,18.0,Closed,2017-01-09 16:36:06,2017-01-11 16:36:06,2017-01-26 12:00:06,14.81,Pothole - 170518,3106558.73726,13825603.49212,29.71683937,-95.41429546,WAP
12095037-101002454089,"4700 NAVIGATION, HOUSTON TX 77011",HARRIS,H,SECOND WARD,0510910000005,,,,,,494P,East End MD,PWE Public Works Engineering,Street and Drainage,Pothole,ROWM_StreetMain,18.0,Closed,2017-01-09 17:06:46,2017-01-12 08:00:00,2017-01-10 10:40:10,-1.89,Pothole-101002454089,3134752.12831,13838809.26481,29.75064373,-95.3239455,Voice In
12095071-101002454184,"12602 MARKET, HOUSTON TX 77015",,E,NORTHSHORE,,NE,NE,THURSDAY,1st Monday,THURSDAY-A,496L,,PWE Public Works Engineering,Street and Drainage,Pothole,ROWM_StreetMain,18.0,Closed,2017-01-09 18:27:52,2017-01-12 08:00:00,2017-01-10 11:05:09,-1.87,Pothole-101002454184,3169867.11419,13845969.82103,29.76724454,-95.21260778,Voice In
12095098-101002454297,Intersection 11850 S GESSNER RD&8600 WESTPLACE DR,Harris County,K,BRAYS OAKS,,,,,,,570B,HCID #5 (Brays Oaks),PWE Public Works Engineering,Street and Drainage,Pothole,ROWM_StreetMain,18.0,Closed,2017-01-09 21:55:00,2017-01-12 08:00:00,2017-01-10 13:45:08,-1.76,Pothole-101002454297,3071136.44944,13800282.244419998,29.65008745,-95.52794652,Voice In
12095102-101002454314,"8224 EASTON, HOUSTON TX 77017",HARRIS,I,PARK PLACE,0283290000007,SE,SE,MONDAY,1st Tuesday,MONDAY-B,535K,,PWE Public Works Engineering,Street and Drainage,Pothole,ROWM_StreetMain,18.0,Closed,2017-01-09 23:07:04,2017-01-12 08:00:00,2017-01-18 09:45:05,6.07,Pothole,,,29.69441283,-95.27356024,Unknown
12095106-101002454328,"5301 LIBBEY, HOUSTON TX 77092",HARRIS,C,CENTRAL NORTHWEST,0804560000013,NW,NW,THURSDAY,4th Tuesday,THURSDAY-B,451L,,PWE Public Works Engineering,Street and Drainage,Pothole,ROWM_StreetMain,18.0,Closed,2017-01-10 00:10:21,2017-01-11 09:10:21,2017-01-10 15:20:09,-0.74,Pothole - 170585,3087547.85084,13866522.5136,29.83060122,-95.4701777,WAP
12095128-101002454385,"9111 HAMMERLY, HOUSTON TX 77080",HARRIS,A,SPRING BRANCH CENTRAL,0681440130005,NW,NE,FRIDAY,4th Thursday,FRIDAY-A,450U,Spring Branch MD,PWE Public Works Engineering,Street and Drainage,Pothole,ROWM_StreetMain,18.0,Closed,2017-01-10 07:33:21,2017-01-11 16:33:21,2017-01-10 12:55:08,-1.15,Pothole-101002454385,3073639.11898,13858676.3048,29.81039709,-95.51459233,Voice In
12095127-101002454387,"3300 GREENS, HOUSTON TX 77032",HARRIS,B,IAH / AIRPORT AREA,0461780000006,,,,,,374P,,PWE Public Works Engineering,Street and Drainage,Pothole,ROWM_StreetMain,18.0,Closed,2017-01-10 07:34:11,2017-01-11 16:34:11,2017-01-10 11:30:08,-1.21,Pothole - 170602,3129045.83982,13911691.72148,29.95088205,-95.33315408,WAP
12095153-101002454477,Intersection 500 DELL CT&0 NORTH FWY,,H,GREATER HEIGHTS,,NW,NE,THURSDAY,1st Friday,Thursday-b,453Y,Greater Northside MD,PWE Public Works Engineering,Street and Drainage,Pothole,ROWM_StreetMain,18.0,Closed,2017-01-10 08:28:46,2017-01-12 08:28:45,2017-01-11 09:50:08,-0.94,Pothole-101002454477,3119012.61452,13853220.56801,,,Voice In
12095197-101002454641,"3235 TELEPHONE, HOUSTON TX 77023",HARRIS,I,GULFGATE RIVERVIEW / PINE VALLEY,0410070350098,,,,,,534G,East End MD,PWE Public Works Engineering,Street and Drainage,Pothole,ROWM_StreetMain,18.0,Closed,2017-01-10 09:38:11,2017-01-12 09:38:10,2017-01-11 10:30:09,-0.96,Pothole - 170626,3137695.93875,13825109.96595,29.71292237,-95.31588123,WAP
12095257-101002454844,"3906 LAW, HOUSTON TX 77005",HARRIS,C,GREENWAY / UPPER KIRBY AREA,0740710080034,SW,SE,TUESDAY,1st Friday,TUESDAY-B,492W,,PWE Public Works Engineering,Street and Drainage,Pothole,ROWM_StreetMain,18.0,Closed,2017-01-10 10:52:07,2017-01-12 10:52:06,2017-01-20 12:20:07,8.06,Pothole - 170642,3098245.74103,13828146.785580002,29.72443536,-95.4399591,WAP
12095267-101002454889,"1919 HENDERSON, HOUSTON TX 77007",HARRIS,H,WASHINGTON AVENUE COALITION / MEMORIAL P,1297120010003,NW,NW,MONDAY,1st Wednesday,MONDAY-A,493F,,PWE Public Works Engineering,Street and Drainage,Pothole,ROWM_StreetMain,18.0,Closed,2017-01-10 11:06:14,2017-01-12 11:06:14,2017-01-10 14:35:09,-1.85,Pothole - 170647,3116857.59247,13847131.968099998,29.77461365,-95.37935426,WAP
12095268-101002454891,"1911 HENDERSON, HOUSTON TX 77007",HARRIS,H,WASHINGTON AVENUE COALITION / MEMORIAL P,0051430000012,NW,NW,MONDAY,1st Wednesday,MONDAY-A,493F,,PWE Public Works Engineering,Street and Drainage,Pothole,ROWM_StreetMain,18.0,Closed,2017-01-10 11:06:16,2017-01-12 11:06:16,2017-01-10 13:50:08,-1.89,Pothole - 170649,3116991.66842,13847181.22479,29.7749259,-95.37910757,WAP
12095274-101002454899,"9214 BARR, HOUSTON TX 77080",HARRIS,A,SPRING BRANCH CENTRAL,1147630000012,NW,NE,FRIDAY,4th Thursday,FRIDAY-A,450Q,Spring Branch MD,PWE Public Works Engineering,Street and Drainage,Pothole,ROWM_StreetMain,18.0,Closed,2017-01-10 11:10:24,2017-01-12 11:10:24,2017-01-11 10:40:09,-1.02,Pothole-101002454899,3072362.905,13858890.94512,29.8110916,-95.51859475,Voice In
12095272-101002454905,"3224 WESTHEIMER, HOUSTON TX 77098",HARRIS,G,AFTON OAKS / RIVER OAKS AREA,0601480240020,,,,,,492T,,PWE Public Works Engineering,Street and Drainage,Pothole,ROWM_StreetMain,18.0,Closed,2017-01-10 11:12:13,2017-01-12 11:12:13,2017-01-10 14:50:09,-1.85,Pothole - 170652,3103135.86416,13834753.714380002,29.74242169,-95.42398323,WAP
12095279-101002454912,Intersection 12100 KIRKBRIAR DR&11800 KIRKNOLL DR&10300 SAGEFOREST DR,Harris County,D,SOUTH BELT / ELLINGTON,,SE,SW,THURSDAY,2nd Thursday,THURSDAY-B,576Y,,PWE Public Works Engineering,Street and Drainage,Pothole,ROWM_StreetMain,18.0,Closed,2017-01-10 11:15:43,2017-01-12 11:15:43,2017-01-11 09:10:09,-1.09,Pothole-101002454912,3169468.86465,13786078.4536,29.60266119,-95.21996297,Voice In
101002454918,Intersection 5200 W ALABAMA ST&2800 SAGE RD,,G,GREATER UPTOWN,,,,,,,491U,Uptown Houston MD,PWE Public Works Engineering,Street and Drainage,Pothole,ROWM_StreetMain,18.0,Closed,2017-01-10 11:17:12,2017-01-12 11:17:12,2017-01-10 11:18:46,-2.0,Pothole-101002454918,3089589.07396,13832827.697379997,,,Voice In
12095294-101002455018,"3214 WESTHEIMER, HOUSTON TX 77098",HARRIS,G,AFTON OAKS / RIVER OAKS AREA,0601480240018,,,,,,492T,,PWE Public Works Engineering,Street and Drainage,Pothole,ROWM_StreetMain,18.0,Closed,2017-01-10 11:52:10,2017-01-12 11:52:09,2017-01-10 15:10:09,-1.86,Pothole - 170682,3103228.67806,13834756.12636,29.74242575,-95.42356906,WAP
12095338-101002455188,"12222 BRIAR FOREST, HOUSTON TX 77077",HARRIS,G,BRIAR FOREST,1062750000035,,,,,,489N,,PWE Public Works Engineering,Street and Drainage,Pothole,ROWM_StreetMain,18.0,Closed,2017-01-10 12:56:11,2017-01-12 12:56:11,2017-01-11 12:55:09,-1.0,Pothole-101002455188,3048727.97195,13837041.89531,29.75294623,-95.59509853,Voice In
170731-101002455299,,Unknown,Unknown,Unknown,Unknown,Unknown,Unknown,Unknown,Unknown,Unknown,Unknown,Unknown,PWE Public Works Engineering,Street and Drainage,Pothole,ROWM_StreetMain,18.0,Closed,2017-01-10 13:48:08,2017-01-12 13:48:08,2017-01-10 13:58:28,-1.99,Pothole - 170731,3108004.51957,13834783.78295,Unknown,Unknown,WAP
12095400-101002455417,"5811 RICHMOND, HOUSTON TX 77057",HARRIS,J,MID WEST,0731870000078,,,,,,491X,Harris County PID#2,PWE Public Works Engineering,Street and Drainage,Pothole,ROWM_StreetMain,18.0,Closed,2017-01-10 14:27:47,2017-01-12 14:27:47,2017-01-11 09:05:09,-1.22,Pothole-101002455417,3085006.6051,13830179.63509,29.73113049,-95.48146595,Voice In
12095405-101002455439,Intersection 2334 CRESCENT PARK DR&11638 VILLAGE PLACE DR,Harris County,G,BRIAR FOREST,,,,,,,489S,,PWE Public Works Engineering,Street and Drainage,Pothole,ROWM_StreetMain,18.0,Closed,2017-01-10 14:35:44,2017-01-12 14:35:44,2017-01-11 13:40:09,-1.04,Pothole-101002455439,3052035.05851,13832583.97903,29.74042696,-95.58509062,Voice In
12095436-101002455560,Intersection 6300 BELLAIRE BLVD&6900 HILLCROFT AVE,Harris County,J,GULFTON,,,,,,,531E,Sharpstown MD,PWE Public Works Engineering,Street and Drainage,Pothole,ROWM_StreetMain,18.0,Closed,2017-01-10 15:28:56,2017-01-12 15:28:56,2017-01-11 14:35:10,-1.04,Pothole-101002455560,3081611.91406,13820735.94728,29.70545205,-95.49304963,Voice In
12095443-101002455585,"1130 EARLE, HOUSTON TX 77030",HARRIS,D,MEDICAL CENTER AREA,1331870010001,,,,,,532M,,PWE Public Works Engineering,Street and Drainage,Pothole,ROWM_StreetMain,18.0,Closed,2017-01-10 15:37:57,2017-01-12 15:37:57,2017-01-11 11:15:09,-1.18,Pothole,,,29.69727704,-95.39989113,WEB
12095446-101002455601,"11654 SOUTHLAKE, HOUSTON TX 77077",HARRIS,G,BRIAR FOREST,1111030000018,NW,NW,MONDAY,4th Wednesday,MONDAY-A,489T,,PWE Public Works Engineering,Street and Drainage,Pothole,ROWM_StreetMain,18.0,Closed,2017-01-10 15:43:09,2017-01-12 15:43:08,2017-01-11 11:25:08,-1.18,Pothole-101002455601,3052289.39462,13833030.213699998,29.74163317,-95.58424844,Voice In
12095473-101002455712,"1313 CONFEDERATE, HOUSTON TX 77055",HARRIS,A,SPRING BRANCH WEST,0790510060002,NW,NE,FRIDAY,4th Wednesday,FRIDAY-A,450X,Spring Branch MD,PWE Public Works Engineering,Street and Drainage,Pothole,ROWM_StreetMain,18.0,Closed,2017-01-10 16:24:56,2017-01-12 16:24:56,2017-01-23 09:45:04,10.72,Pothole-101002455712,3069466.43015,13852055.963379998,29.79254062,-95.52836409,Voice In
12095513-101002455881,"5880 BINGLE, HOUSTON TX 77092",HARRIS,A,FAIRBANKS / NORTHWEST CROSSING,0430120000072,,,,,,451A,Near Northwest MD,PWE Public Works Engineering,Street and Drainage,Pothole,ROWM_StreetMain,18.0,Closed,2017-01-10 17:40:20,2017-01-13 08:00:00,2017-01-11 11:35:09,-1.85,Pothole - 170778,3081365.54817,13873879.53639,29.85192247,-95.48932642,WAP
12095514-101002455885,Intersection 7400 CAMBRIDGE ST&2000 OLD SPANISH TRL,Harris County,D,MEDICAL CENTER AREA,,,,,,,533J,,PWE Public Works Engineering,Street and Drainage,Pothole,ROWM_StreetMain,18.0,Closed,2017-01-10 17:41:26,2017-01-13 08:00:00,2017-01-31 14:50:04,18.28,Pothole-101002455885,3113436.82974,13818851.57999,29.69761091,-95.39302836,Voice In
12095525-101002455946,"1002 TWIN OAKS, HOUSTON TX 77076",HARRIS,H,NORTHSIDE/NORTHLINE,0750680140313,NE,NW,MONDAY,3rd Monday,MONDAY-B,413Y,Greater Northside MD,PWE Public Works Engineering,Street and Drainage,Pothole,ROWM_StreetMain,18.0,Closed,2017-01-10 18:24:10,2017-01-13 08:00:00,2017-01-11 14:10:09,-1.74,Pothole - 170795,3120364.75559,13878080.16461,29.85960504,-95.36543992,WAP
12095534-101002455982,"3807 OATES, HOUSTON TX 77013",HARRIS,I,EL DORADO / OATES PRAIRIE,1358250010001,NE,NE,THURSDAY,4th Friday,THURSDAY-A,456W,,PWE Public Works Engineering,Street and Drainage,Pothole,ROWM_StreetMain,18.0,Closed,2017-01-10 18:57:58,2017-01-13 08:00:00,2017-01-11 15:20:08,-1.69,Pothole-101002455982,3159894.91169,13857020.97839,29.79850368,-95.24290528,Voice In
12095536-101002455989,Intersection 9600 DEERING DR&9450 WOODFAIR DR,Harris County,J,WESTWOOD,,,,,,,529V,Sharpstown MD,PWE Public Works Engineering,Street and Drainage,Pothole,ROWM_StreetMain,18.0,Closed,2017-01-10 19:05:51,2017-01-13 08:00:00,2017-01-11 10:10:09,-1.91,Pothole-101002455989,3062919.23983,13810519.231820002,29.67889603,-95.55285652,Voice In
12095551-101002456058,Intersection 5800 BINGLE RD&6700 W TIDWELL RD,Harris County,C,GREATER INWOOD,,,,,,,451A,Near Northwest MD,PWE Public Works Engineering,Street and Drainage,Pothole,ROWM_StreetMain,18.0,Closed,2017-01-10 21:24:30,2017-01-13 08:00:00,2017-01-11 12:00:09,-1.83,Pothole-101002456058,3081349.64818,13873523.11992,29.85057269,-95.48888393,Voice In
12095578-101002456153,Intersection 7500 BEECHNUT ST&8000 BRAEBURN VALLEY DR,Harris County,J,SHARPSTOWN,,,,,,,530L,Sharpstown MD,PWE Public Works Engineering,Street and Drainage,Pothole,ROWM_StreetMain,18.0,Closed,2017-01-11 07:41:04,2017-01-12 16:41:04,2017-01-12 09:50:09,-0.29,Pothole,,,29.69106486,-95.5177308,WEB
12095580-101002456161,"8528 BEECHNUT, HOUSTON TX 77036",HARRIS,J,SHARPSTOWN,0933570000029,SW,SW,TUESDAY,2nd Monday,TUESDAY-B,530J,Sharpstown MD,PWE Public Works Engineering,Street and Drainage,Pothole,ROWM_StreetMain,18.0,Closed,2017-01-11 07:45:28,2017-01-12 16:45:28,2017-01-12 10:20:09,-0.27,Pothole,,,29.69152152,-95.53503485,WEB
12095582-101002456164,"1433 W LOOP S, HOUSTON TX 77027",HARRIS,G,AFTON OAKS / RIVER OAKS AREA,0985720000002,,,,,,491R,,PWE Public Works Engineering,Street and Drainage,Pothole,ROWM_StreetMain,18.0,Closed,2017-01-11 07:46:16,2017-01-12 16:46:16,2017-01-12 12:10:09,-0.19,Pothole - 170857,3093123.79848,13838721.49784,29.75654792,-95.45459245,WAP
12095593-101002456199,"7119 VILLAGE, HOUSTON TX 77087",HARRIS,I,GULFGATE RIVERVIEW / PINE VALLEY,1320930010001,,,,,,534M,East End MD,PWE Public Works Engineering,Street and Drainage,Pothole,ROWM_StreetMain,18.0,Closed,2017-01-11 08:11:40,2017-01-13 08:11:40,2017-01-12 08:30:10,-0.99,Pothole-101002456199,3143402.35248,13820870.298060002,29.70058532,-95.29848696,Voice In
12095603-101002456218,Intersection 4200 ANTOINE DR&5500 LIBBEY DR,Harris County,C,CENTRAL NORTHWEST,,NW,NW,THURSDAY,4th Tuesday,THURSDAY-B,451L,,PWE Public Works Engineering,Street and Drainage,Pothole,ROWM_StreetMain,18.0,Closed,2017-01-11 08:26:10,2017-01-13 08:26:10,2017-01-12 10:15:10,-0.92,Pothole,,,29.83129874,-95.47287741,WEB
12095630-101002456306,Intersection 6900 BURKETT ST&3408 YELLOWSTONE BLVD,Harris County,D,GREATER OST / SOUTH UNION,,SE,SW,TUESDAY,3rd Tuesday,TUESDAY-A,533L,,PWE Public Works Engineering,Street and Drainage,Pothole,ROWM_StreetMain,18.0,Closed,2017-01-11 09:08:55,2017-01-13 09:08:55,2017-01-24 14:15:05,11.21,Pothole-101002456306,3120454.09556,13818638.49741,29.69642829,-95.37095636,Voice In
101002456342,Intersection 3758 RICHMOND AVE&3700 TIMMONS LN,,C,GREENWAY / UPPER KIRBY AREA,,,,,,,492W,HCID #3 (Upper Kirby),PWE Public Works Engineering,Street and Drainage,Pothole,ROWM_StreetMain,18.0,Closed,2017-01-11 09:29:48,2017-01-13 09:29:48,2017-01-11 09:30:49,-2.0,Pothole-101002456342,3099291.90986,13831186.913260002,,,Voice In
12095665-101002456419,Intersection 14628 OLD HUMBLE RD&6200 STOREY DR,,,,,,,,,,375S,,PWE Public Works Engineering,Street and Drainage,Pothole,ROWM_StreetMain,18.0,Closed,2017-01-11 10:02:56,2017-01-13 10:02:55,2017-01-11 16:00:09,-1.75,Pothole-101002456419,3143006.31981,13905472.60852,,,Voice In
12095690-101002456529,Intersection 1000 ELDRIDGE PKWY&1100 ENCLAVE PKWY,Harris County,G,ELDRIDGE / WEST OAKS,,,,,,,488F,HCID #4 (Energy Corridor),PWE Public Works Engineering,Street and Drainage,Pothole,ROWM_StreetMain,18.0,Closed,2017-01-11 10:40:48,2017-01-13 10:40:48,2017-01-12 11:45:09,-0.96,Pothole-101002456529,3039672.91034,13842549.08049,29.76880655,-95.62312327,Voice In
12095707-101002456591,"5924 DEERWOOD, HOUSTON TX 77057",HARRIS,G,GREATER UPTOWN,0871770000008,,,,,,491K,,PWE Public Works Engineering,Street and Drainage,Pothole,ROWM_StreetMain,18.0,Closed,2017-01-11 11:00:19,2017-01-13 11:00:19,2017-01-12 11:15:10,-0.99,Pothole - 170889,3084059.55119,13841519.72977,29.76265424,-95.4832475,WAP
12095710-101002456598,"235 WESTHEIMER, HOUSTON TX 77006",HARRIS,C,NEARTOWN - MONTROSE,0041410000017,NW,NE,MONDAY,1st Wednesday,MONDAY-A,493T,Montrose Management District,PWE Public Works Engineering,Street and Drainage,Pothole,ROWM_StreetMain,18.0,Closed,2017-01-11 11:02:13,2017-01-13 11:02:13,2017-01-12 10:35:09,-1.02,Pothole,,,29.74437945,-95.38432975,WEB
12095723-101002456624,Intersection 2818 HOUSTON AVE&100 PAYNE ST,Harris County,H,GREATER HEIGHTS,,NW,NW,THURSDAY,3rd Wednesday,THURSDAY-A,493C,Greater Northside MD,PWE Public Works Engineering,Street and Drainage,Pothole,ROWM_StreetMain,18.0,Closed,2017-01-11 11:17:41,2017-01-13 11:17:41,2017-01-26 08:30:06,12.88,Pothole-101002456624,3119098.06382,13850623.11913,29.78446006,-95.37210087,Voice In
12095731-101002456644,"6503 A RODRIGO, HOUSTON TX 77007",HARRIS,C,WASHINGTON AVENUE COALITION / MEMORIAL P,0541280010001,NW,NW,MONDAY,1st Wednesday,MONDAY-A,492F,,PWE Public Works Engineering,Street and Drainage,Pothole,ROWM_StreetMain,18.0,Closed,2017-01-11 11:31:32,2017-01-13 11:31:32,2017-01-12 13:30:10,-0.92,Pothole-101002456644,3101436.77729,13845799.537900003,29.77269626,-95.42821733,Voice In
12095737-101002456650,"6507 A RODRIGO, HOUSTON TX 77007",HARRIS,C,WASHINGTON AVENUE COALITION / MEMORIAL P,1339690010002,NW,NW,MONDAY,1st Wednesday,MONDAY-A,492F,,PWE Public Works Engineering,Street and Drainage,Pothole,ROWM_StreetMain,18.0,Closed,2017-01-11 11:33:05,2017-01-13 11:33:05,2017-01-12 05:55:09,-1.23,Pothole-101002456650,3101370.68556,13845841.229420003,29.77281641,-95.42842156,Voice In
12095776-101002456751,"1902 WASHINGTON, HOUSTON TX 77007",HARRIS,H,WASHINGTON AVENUE COALITION / MEMORIAL P,0052080000013,NW,NW,MONDAY,1st Wednesday,MONDAY-A,493K,,PWE Public Works Engineering,Street and Drainage,Pothole,ROWM_StreetMain,18.0,Closed,2017-01-11 12:26:10,2017-01-13 12:26:09,2017-01-12 10:55:10,-1.06,Pothole - 170908,3117659.89849,13844580.148300003,29.76822212,-95.37760369,WAP
12095810-101002456869,Intersection 7900 BEECHNUT ST&0 SOUTHWEST FWY,,J,SHARPSTOWN,,,,,,,530K,Sharpstown MD,PWE Public Works Engineering,Street and Drainage,Pothole,ROWM_StreetMain,18.0,Closed,2017-01-11 13:38:58,2017-01-13 13:38:58,2017-01-12 09:15:09,-1.18,Pothole-101002456869,3071089.00761,13815507.72545,,,Voice In
12095816-101002456904,"5854 SHADY RIVER, HOUSTON TX 77057",HARRIS,G,GREATER UPTOWN,0871710000001,,,,,,491F,,PWE Public Works Engineering,Street and Drainage,Pothole,ROWM_StreetMain,18.0,Closed,2017-01-11 13:56:12,2017-01-13 13:56:12,2017-01-12 10:50:10,-1.13,Pothole - 170920,3084387.78723,13843304.08252,29.76755466,-95.48190358,WAP
12095859-101002456985,"675 RANKIN, HOUSTON TX 77067",HARRIS,B,GREATER GREENSPOINT,1145860000004,,,,,,372F,Greater Greenspoint MD,PWE Public Works Engineering,Street and Drainage,Pothole,ROWM_StreetMain,18.0,Closed,2017-01-11 14:48:29,2017-01-13 14:48:29,2017-01-12 09:35:09,-1.22,Pothole,,,29.96440263,-95.42697326,WEB
12095863-101002456994,Intersection 9300 CURRENCY ST&400 DIVIDEND DR,Harris County,I,NORTHSHORE,,,,,,,495H,,PWE Public Works Engineering,Street and Drainage,Pothole,ROWM_StreetMain,18.0,Closed,2017-01-11 14:54:19,2017-01-13 14:54:19,2017-01-12 14:00:10,-1.04,Pothole-101002456994,3154600.27792,13850156.98325,29.78010409,-95.26028256,Voice In
12095902-101002457119,Intersection 100 KNOX ST&5900 MEMORIAL DR,,C,WASHINGTON AVENUE COALITION / MEMORIAL P,,,,,,,492L,,PWE Public Works Engineering,Street and Drainage,Pothole,ROWM_StreetMain,18.0,Closed,2017-01-11 16:01:15,2017-01-13 16:01:14,2017-01-12 14:20:10,-1.07,Pothole-101002457119,3103876.45483,13841749.33209,,,Voice In
12095907-101002457134,"1939 ROUND LAKE, HOUSTON TX 77077",HARRIS,G,BRIAR FOREST,1118930000095,,,,,,489S,,PWE Public Works Engineering,Street and Drainage,Pothole,ROWM_StreetMain,18.0,Closed,2017-01-11 16:10:18,2017-01-13 16:10:18,2017-01-12 12:50:10,-1.14,Pothole - 170949,3048350.99301,13833581.91276,29.74358656,-95.5966841,WAP
12095908-101002457135,"12219 ROCKY KNOLL, HOUSTON TX 77077",HARRIS,G,BRIAR FOREST,1118930000001,,,,,,489S,,PWE Public Works Engineering,Street and Drainage,Pothole,ROWM_StreetMain,18.0,Closed,2017-01-11 16:10:24,2017-01-13 16:10:24,2017-01-12 13:20:09,-1.12,Pothole - 170948,3048353.56933,13833826.23004,29.74390431,-95.59646571,WAP
12095915-101002457143,"7325 MAIN, HOUSTON TX 77030",HARRIS,K,MEDICAL CENTER AREA,1350890010001,,,,,,532M,,PWE Public Works Engineering,Street and Drainage,Pothole,ROWM_StreetMain,18.0,Closed,2017-01-11 16:16:12,2017-01-13 16:16:12,2017-01-12 09:35:10,-1.28,Pothole - 170954,3108395.20709,13820039.12959,29.70123933,-95.40845993,WAP
12095931-101002457192,Intersection 12752 MARKET ST&1300 SHEFFIELD BLVD,Harris County,E,NORTHSHORE,,NE,NE,THURSDAY,1st Monday,THURSDAY-A,496M,,PWE Public Works Engineering,Street and Drainage,Pothole,ROWM_StreetMain,18.0,Closed,2017-01-11 16:43:40,2017-01-13 16:43:40,2017-01-12 09:25:10,-1.3,Pothole-101002457192,3171377.13774,13846109.72429,29.76749453,-95.20783637,Voice In
12095974-101002457316,Intersection 600 FIR RIDGE DR&24600 E LAKE HOUSTON PKWY,Harris County,E,LAKE HOUSTON,,,,,,,338M,,PWE Public Works Engineering,Street and Drainage,Pothole,ROWM_StreetMain,18.0,Closed,2017-01-11 18:53:51,2017-01-17 08:00:00,2017-01-12 12:30:09,-4.81,Pothole,,,30.02769286,-95.11145783,WEB
12095979-101002457332,Intersection 6000 MEMORIAL DR&100 WESTCOTT ST,,C,WASHINGTON AVENUE COALITION / MEMORIAL P,,NW,,MONDAY,,Monday-b,492L,,PWE Public Works Engineering,Street and Drainage,Pothole,ROWM_StreetMain,18.0,Closed,2017-01-11 19:28:36,2017-01-17 08:00:00,2017-01-12 13:35:10,-4.77,Pothole-101002457332,3103702.61397,13841730.81868,,,Voice In
12096000-101002457370,"1415 NEVADA, HOUSTON TX 77006",HARRIS,C,NEARTOWN - MONTROSE,0180300010002,NW,NE,MONDAY,1st Wednesday,MONDAY-A,492R,Montrose Management District,PWE Public Works Engineering,Street and Drainage,Pothole,ROWM_StreetMain,18.0,Closed,2017-01-11 22:38:32,2017-01-17 08:00:00,2017-01-12 11:20:10,-4.86,Pothole,,,29.75101459,-95.39812929,WEB
12096033-101002457481,"4703 TELEPHONE, HOUSTON TX 77087",HARRIS,I,GOLFCREST / BELLFORT / REVEILLE,0450660020028,SE,SE,TUESDAY,3rd Wednesday,TUESDAY-A,534R,,PWE Public Works Engineering,Street and Drainage,Pothole,ROWM_StreetMain,18.0,Closed,2017-01-12 08:02:18,2017-01-17 08:02:18,2017-02-02 12:15:05,16.18,Pothole - 171013,3143221.68447,13818294.85923,29.69339148,-95.29894245,WAP
12096044-101002457519,Intersection 8000 BEECHNUT ST&8000 SOUTHWEST FWY,Harris County,J,SHARPSTOWN,,SW,SW,TUESDAY,,TUESDAY-B,530K,Sharpstown MD,PWE Public Works Engineering,Street and Drainage,Pothole,ROWM_StreetMain,18.0,Closed,2017-01-12 08:28:45,2017-01-17 08:28:45,2017-01-13 10:20:10,-3.92,Pothole,,,29.69217677,-95.52742764,WEB
12096047-101002457524,"11040 SOUTHWEST FWY, HOUSTON TX 77074",HARRIS,J,ALIEF,1192760010002,,,,,,529Y,International MD,PWE Public Works Engineering,Street and Drainage,Pothole,ROWM_StreetMain,18.0,Closed,2017-01-12 08:33:34,2017-01-17 08:33:33,2017-01-13 10:05:10,-3.94,Pothole,,,29.66060752,-95.55993857,WEB
12096051-101002457537,"2700 SOUTHWEST FWY, HOUSTON TX 77098",HARRIS,C,GREENWAY / UPPER KIRBY AREA,0410170080311,,,,,,492Y,HCID #3 (Upper Kirby),PWE Public Works Engineering,Street and Drainage,Pothole,ROWM_StreetMain,18.0,Closed,2017-01-12 08:38:58,2017-01-17 08:38:58,2017-01-12 14:30:12,-4.76,Pothole,,,29.73152135,-95.42035155,WEB
12096127-101002457787,"6060 VICTORY, HOUSTON TX 77088",HARRIS,A,GREATER INWOOD,0991100000064,,,,,,411T,Near Northwest MD,PWE Public Works Engineering,Street and Drainage,Pothole,ROWM_StreetMain,18.0,Closed,2017-01-12 10:22:05,2017-01-17 10:22:05,2017-01-13 14:30:11,-3.83,Pothole - 171055,3083976.91702,13879081.913,29.86603619,-95.48021181,WAP
12096167-101002457928,"5729 BROOKFIELD, HOUSTON TX 77085",HARRIS,K,CENTRAL SOUTHWEST,0681350000291,SW,SW,FRIDAY,4th Wednesday,FRIDAY-A,571U,Five Corners HCID #10B,PWE Public Works Engineering,Street and Drainage,Pothole,ROWM_StreetMain,18.0,Closed,2017-01-12 11:21:14,2017-01-17 11:21:14,2017-01-13 12:20:11,-3.96,Pothole,,,29.61455877,-95.46954469,Unknown
12096182-101002457966,"1409 NEVADA, HOUSTON TX 77006",HARRIS,C,NEARTOWN - MONTROSE,0180280000018,NW,NE,MONDAY,1st Wednesday,MONDAY-A,492R,Montrose Management District,PWE Public Works Engineering,Street and Drainage,Pothole,ROWM_StreetMain,18.0,Closed,2017-01-12 11:44:09,2017-01-17 11:44:09,2017-01-12 15:10:10,-4.86,Pothole,,,29.75117885,-95.39792425,WEB
12096230-101002458117,Intersection 5500 ENNIS ST&3100 N MACGREGOR WAY,Harris County,D,MACGREGOR,,SE,SW,TUESDAY,3rd Friday,TUESDAY-A,533G,Greater Southeast MD,PWE Public Works Engineering,Street and Drainage,Pothole,ROWM_StreetMain,18.0,Closed,2017-01-12 12:59:38,2017-01-17 12:59:38,2017-01-23 14:55:03,6.08,Pothole,,,29.71420933,-95.37172449,Unknown
12096235-101002458125,"1412 RUELL, HOUSTON TX 77017",HARRIS,E,MEADOWBROOK / ALLENDALE,0771780310002,SE,SE,MONDAY,1st Monday,MONDAY-B,535M,,PWE Public Works Engineering,Street and Drainage,Pothole,ROWM_StreetMain,18.0,Closed,2017-01-12 13:01:36,2017-01-17 13:01:35,2017-01-12 15:05:11,-4.91,Pothole-101002458125,3158525.50432,13819042.49135,29.69423678,-95.25105864,Voice In
12096244-101002458146,"100 GESSNER, HOUSTON TX 77024",HARRIS,G,MEMORIAL,1175050020002,NW,NW,MONDAY,4th Wednesday,MONDAY-A,490N,,PWE Public Works Engineering,Street and Drainage,Pothole,ROWM_StreetMain,18.0,Closed,2017-01-12 13:12:12,2017-01-17 13:12:12,2017-01-13 10:50:11,-4.1,Pothole-101002458146,3066313.52142,13837325.64212,29.75230698,-95.53967414,Voice In
12096264-101002458190,"4400 AIRPORT, HOUSTON TX 77045",HARRIS,K,CENTRAL SOUTHWEST,0420140000199,,,,,,572E,Five Corners HCID #10B,PWE Public Works Engineering,Street and Drainage,Pothole,ROWM_StreetMain,18.0,Closed,2017-01-12 13:34:48,2017-01-17 13:34:48,2017-01-13 12:45:11,-4.03,Pothole-101002458190,3098026.01148,13798496.20895,29.64295615,-95.44349746,Voice In
12096296-101002458321,Intersection 1700 HAFNER DR&6600 LONG POINT RD,Harris County,A,SPRING BRANCH EAST,,NW,NE,FRIDAY,4th Wednesday,FRIDAY-A,451U,Spring Branch MD,PWE Public Works Engineering,Street and Drainage,Pothole,ROWM_StreetMain,18.0,Closed,2017-01-12 14:37:04,2017-01-17 14:37:03,2017-01-13 12:15:11,-4.1,Pothole,,,29.80292512,-95.46493519,Unknown
12096388-101002458665,"1433 W LOOP, HOUSTON TX 77027",HARRIS,G,AFTON OAKS / RIVER OAKS AREA,0985730000006,,,,,,491R,,PWE Public Works Engineering,Street and Drainage,Pothole,ROWM_StreetMain,18.0,Closed,2017-01-12 17:42:08,2017-01-18 08:00:00,2017-01-13 10:45:11,-4.89,Pothole - 171205,3093229.56253,13838518.98229,29.75346137,-95.45471033,WAP
12096391-101002458673,"9880 TANNER, HOUSTON TX 77041",HARRIS,A,CARVERDALE,1238660010003,,,,,,450A,,PWE Public Works Engineering,Street and Drainage,Pothole,ROWM_StreetMain,18.0,Closed,2017-01-12 17:52:09,2017-01-18 08:00:00,2017-01-13 13:30:11,-4.77,Pothole - 171207,3066135.30287,13872874.335539997,29.85027314,-95.5369568,WAP
12096392-101002458677,"11340 RICHMOND, HOUSTON TX 77082",HARRIS,F,WESTCHASE,1144110070002,,,,,,489X,Westchase MD,PWE Public Works Engineering,Street and Drainage,Pothole,ROWM_StreetMain,18.0,Closed,2017-01-12 17:54:07,2017-01-18 08:00:00,2017-01-13 10:10:10,-4.91,Pothole - 171208,3053916.68604,13828104.11244,29.72901743,-95.57734179,WAP
12096407-101002458744,Intersection 2800 BERNADETTE LN&10400 KEMPWOOD DR,,A,SPRING BRANCH NORTH,,NW,NE,FRIDAY,4th Friday,Friday-a,449M,Spring Branch MD,PWE Public Works Engineering,Street and Drainage,Pothole,ROWM_StreetMain,18.0,Closed,2017-01-12 18:50:29,2017-01-18 08:00:00,2017-01-13 12:50:11,-4.8,Pothole-101002458744,3062208.1028,13862878.531299997,,,Voice In
12096408-101002458749,"5602 BEECHNUT, HOUSTON TX 77096",HARRIS,C,MEYERLAND AREA,0910410000039,SW,SE,TUESDAY,2nd Wednesday,TUESDAY-B,531N,,PWE Public Works Engineering,Street and Drainage,Pothole,ROWM_StreetMain,18.0,Closed,2017-01-12 18:52:12,2017-01-18 08:00:00,2017-01-13 10:00:10,-4.92,Pothole - 171216,3083204.99764,13814817.54712,29.68929561,-95.48852858,WAP
12096423-101002458818,"9288 BELLAIRE, HOUSTON TX 77036",HARRIS,F,SHARPSTOWN,1031500000002,,,,,,529H,Sharpstown MD,PWE Public Works Engineering,Street and Drainage,Pothole,ROWM_StreetMain,18.0,Closed,2017-01-12 20:12:01,2017-01-18 08:00:00,2017-01-13 10:40:10,-4.89,Pothole-101002458818,3064427.48944,13820363.415219998,29.70583398,-95.54719351,Voice In
12096433-101002458859,Intersection 1300 HAMILTON ST&1900 POLK ST,Harris County,I,DOWNTOWN,,,,,,,493R,Houston Downtown,PWE Public Works Engineering,Street and Drainage,Pothole,ROWM_StreetMain,18.0,Closed,2017-01-12 22:47:44,2017-01-18 08:00:00,2017-01-13 13:20:10,-4.78,Pothole-101002458859,3123652.97039,13838245.06121,29.75004761,-95.35896295,Voice In
12096457-101002458966,"13830 S WAYSIDE, HOUSTON TX 77048",HARRIS,D,MINNETEX,0261210000282,SE,SE,FRIDAY,4th Monday,FRIDAY-B,574U,,PWE Public Works Engineering,Street and Drainage,Pothole,ROWM_StreetMain,18.0,Closed,2017-01-13 08:20:46,2017-01-18 08:20:45,2017-01-25 15:27:28,7.3,Pothole,,,29.60865893,-95.31900992,WEB
101002458993,Intersection 10900 BELLAIRE BLVD&6800 WILCREST DR,Harris County,F,ALIEF,,,,,,,529G,International MD,PWE Public Works Engineering,Street and Drainage,Pothole,ROWM_StreetMain,18.0,Closed,2017-01-13 08:39:23,2017-01-18 08:39:23,2017-01-13 08:39:45,-5.0,Pothole-101002458993,3056826.27793,13819445.63457,29.70392605,-95.57121271,Voice In
12096509-101002459140,Intersection 400 PAIGE ST&2900 PRESTON ST,Harris County,H,SECOND WARD,,SE,SE,MONDAY,1st Friday,MONDAY-A,494N,East End MD,PWE Public Works Engineering,Street and Drainage,Pothole,ROWM_StreetMain,18.0,Closed,2017-01-13 09:44:23,2017-01-18 09:44:22,2017-01-13 14:30:11,-4.8,Pothole-101002459140,3128000.27207,13839030.26929,29.75183305,-95.34519185,Voice In
12096529-101002459214,"9917 GULFPALMS, HOUSTON TX 77034",HARRIS,E,SOUTH BELT / ELLINGTON,0151050110015,SE,SW,THURSDAY,2nd Tuesday,THURSDAY-B,576Q,,PWE Public Works Engineering,Street and Drainage,Pothole,ROWM_StreetMain,18.0,Closed,2017-01-13 10:19:06,2017-01-18 10:19:06,2017-01-17 10:05:05,-1.01,Pothole,,,29.6218942,-95.21109913,WEB
12096537-101002459247,Intersection 9600 EDELL ST&3200 TURNER DR,Harris County,H,EASTEX - JENSEN AREA,,NE,NE,MONDAY,2nd Thursday,MONDAY-B,454A,Greater Northside MD,PWE Public Works Engineering,Street and Drainage,Pothole,ROWM_StreetMain,18.0,Closed,2017-01-13 10:34:07,2017-01-18 10:34:06,2017-01-17 14:45:04,-0.83,Pothole,,,29.84945876,-95.33814246,WEB
12096550-101002459297,Intersection 10426 KEMPWOOD DR&2800 KENROSS ST,Harris County,A,SPRING BRANCH NORTH,,NW,NW,FRIDAY,4th Friday,FRIDAY-A,449M,Spring Branch MD,PWE Public Works Engineering,Street and Drainage,Pothole,ROWM_StreetMain,18.0,Closed,2017-01-13 10:55:18,2017-01-18 10:55:17,2017-01-17 13:50:04,-0.88,Pothole-101002459297,3061930.18078,13862862.70653,29.82285892,-95.55110942,Voice In
12096581-101002459401,Intersection 12500 HEMPSTEAD RD&4000 NORTHFIELD LN,Harris County,A,FAIRBANKS / NORTHWEST CROSSING,,NW,NW,FRIDAY,4th Thursday,FRIDAY-A,450M,Spring Branch MD,PWE Public Works Engineering,Street and Drainage,Pothole,ROWM_StreetMain,18.0,Closed,2017-01-13 11:58:33,2017-01-18 11:58:32,2017-01-17 14:30:05,-0.89,Pothole-101002459401,3078315.56894,13865842.80129,29.82971183,-95.49917608,Voice In
12096598-101002459474,"3654 LAKE, HOUSTON TX 77098",HARRIS,C,GREENWAY / UPPER KIRBY AREA,1010190040001,,,,,,492Y,HCID #3 (Upper Kirby),PWE Public Works Engineering,Street and Drainage,Pothole,ROWM_StreetMain,18.0,Closed,2017-01-13 12:28:11,2017-01-18 12:28:11,2017-01-17 10:40:04,-1.08,Pothole - 171367,3104139.22017,13831798.47731,29.7338332,-95.42118952,WAP
12096622-101002459579,"11997 NORTH FWY, HOUSTON TX 77038",HARRIS,B,GREATER GREENSPOINT,1305790010001,,,,,,372U,Greater Greenspoint MD,PWE Public Works Engineering,Street and Drainage,Pothole,ROWM_StreetMain,18.0,Closed,2017-01-13 13:20:17,2017-01-18 13:20:17,2017-01-13 13:40:11,-4.99,Pothole - 171389,3104224.26218,13907077.291139998,29.93959028,-95.41490353,WAP
12096633-101002459615,"417 TURNER, HOUSTON TX 77076",HARRIS,H,NORTHSIDE/NORTHLINE,0740110000011,NE,NW,MONDAY,3rd Monday,MONDAY-B,453C,Greater Northside MD,PWE Public Works Engineering,Street and Drainage,Pothole,ROWM_StreetMain,18.0,Closed,2017-01-13 13:37:17,2017-01-18 13:37:17,2017-01-17 13:15:05,-1.02,Pothole-101002459615,3119100.26034,13875237.78021,29.85211664,-95.36968556,Voice In
12096676-101002459790,Intersection 4800 SAN JACINTO ST&1200 WENTWORTH ST,,D,MUSEUM PARK,,,,,,Tuesday-b,493X,Greater Southeast MD,PWE Public Works Engineering,Street and Drainage,Pothole,ROWM_StreetMain,18.0,Closed,2017-01-13 15:10:56,2017-01-18 15:10:55,2017-01-17 12:55:04,-1.09,Pothole-101002459790,3116130.24397,13830878.93028,,,Voice In
12096699-101002459866,"12403 RICHMOND, HOUSTON TX 77082",HARRIS,F,ELDRIDGE / WEST OAKS,1181600010038,,,,,,488Z,,PWE Public Works Engineering,Street and Drainage,Pothole,ROWM_StreetMain,18.0,Closed,2017-01-13 15:48:08,2017-01-18 15:48:08,2017-01-17 10:40:05,-1.21,Pothole - 171423,3047587.94859,13828574.81225,29.72959363,-95.60002917,WAP
171451-101002460029,,Unknown,Unknown,Unknown,Unknown,Unknown,Unknown,Unknown,Unknown,Unknown,Unknown,Unknown,PWE Public Works Engineering,Street and Drainage,Pothole,ROWM_StreetMain,18.0,Closed,2017-01-13 17:10:25,2017-01-19 08:00:00,2017-01-13 17:19:00,-5.61,Pothole - 171451,3109357.77407,13820924.2022,Unknown,Unknown,WAP
12096739-101002460041,"1900 PRESSLER, HOUSTON TX 77030",HARRIS,K,MEDICAL CENTER AREA,0440920010150,,,,,,532H,,PWE Public Works Engineering,Street and Drainage,Pothole,ROWM_StreetMain,18.0,Closed,2017-01-13 17:17:31,2017-01-19 08:00:00,2017-01-17 10:45:04,-1.89,Pothole-101002460041,3109579.06678,13821258.651939997,29.70455395,-95.40494103,SMS In
12096750-101002460069,"8666 N MAIN, HOUSTON TX 77022",HARRIS,H,INDEPENDENCE HEIGHTS,1378630010001,NW,NW,TUESDAY,2nd Friday,TUESDAY-A,453J,Greater Northside MD,PWE Public Works Engineering,Street and Drainage,Pothole,ROWM_StreetMain,18.0,Closed,2017-01-13 18:06:06,2017-01-19 08:00:00,2017-01-18 09:45:06,-0.93,Pothole - 171467,3110609.20372,13866099.69464,29.8281442,-95.39732706,WAP
12096776-101002460214,"6045 WHEELER, HOUSTON TX 77023",,I,GULFGATE RIVERVIEW / PINE VALLEY,,,,,,,534G,,PWE Public Works Engineering,Street and Drainage,Pothole,ROWM_StreetMain,18.0,Closed,2017-01-14 03:48:08,2017-01-19 08:00:00,2017-01-17 13:45:04,-1.76,Pothole - 171499,3137471.21461,13823632.200979998,29.70894483,-95.31727896,WAP
12096782-101002460227,"3210 SAINT EMANUEL, HOUSTON TX 77004",HARRIS,D,GREATER THIRD WARD,0191670000008,SE,SW,TUESDAY,3rd Friday,TUESDAY-A,493Y,Greater Southeast MD,PWE Public Works Engineering,Street and Drainage,Pothole,ROWM_StreetMain,18.0,Closed,2017-01-14 07:32:04,2017-01-19 08:00:00,2017-02-07 15:20:04,19.31,Pothole - 171502,3120757.24935,13833063.797340002,29.73568806,-95.36814365,WAP
12096794-101002460252,Intersection 4700 ALLUM RD&12800 PLAYER ST,,K,CENTRAL SOUTHWEST,,SW,SW,FRIDAY,4th Monday,,571H,Five Corners HCID #10B,PWE Public Works Engineering,Street and Drainage,Pothole,ROWM_StreetMain,18.0,Closed,2017-01-14 08:40:06,2017-01-19 08:00:00,2017-01-17 09:35:04,-1.93,Pothole-101002460252,3096036.80155,13797741.739,,,Voice In
12096821-101002460339,Intersection 4100 DRISCOLL ST&1840 W MAIN ST,Harris County,C,NEARTOWN - MONTROSE,,NW,NE,MONDAY,1st Wednesday,MONDAY-A,492V,Montrose Management District,PWE Public Works Engineering,Street and Drainage,Pothole,ROWM_StreetMain,18.0,Closed,2017-01-14 10:30:39,2017-01-19 08:00:00,2017-01-17 13:50:04,-1.76,Pothole,,,29.73599811,-95.40625004,WEB
12096824-101002460346,Intersection 4100 HAZARD ST&1900 W MAIN ST,Harris County,C,NEARTOWN - MONTROSE,,NW,NE,MONDAY,1st Wednesday,MONDAY-A,492V,Montrose Management District,PWE Public Works Engineering,Street and Drainage,Pothole,ROWM_StreetMain,18.0,Closed,2017-01-14 10:34:34,2017-01-19 08:00:00,2017-01-17 11:45:05,-1.84,Pothole,,,29.73599061,-95.40706644,WEB
12096826-101002460350,Intersection 2000 W MAIN ST&4100 MCDUFFIE ST,Harris County,C,NEARTOWN - MONTROSE,,NW,NE,MONDAY,1st Wednesday,MONDAY-A,492V,Montrose Management District,PWE Public Works Engineering,Street and Drainage,Pothole,ROWM_StreetMain,18.0,Closed,2017-01-14 10:37:40,2017-01-19 08:00:00,2017-01-27 08:45:06,8.03,Pothole,,,29.73598488,-95.40804301,WEB
101002460354,Intersection 2000 W MAIN ST&4100 MCDUFFIE ST,Harris County,C,NEARTOWN - MONTROSE,,NW,NE,MONDAY,1st Wednesday,MONDAY-A,492V,Montrose Management District,PWE Public Works Engineering,Street and Drainage,Pothole,ROWM_StreetMain,18.0,Closed,2017-01-14 10:41:28,2017-01-19 08:00:00,2017-01-14 10:41:50,-4.89,Pothole,,,29.73598488,-95.40804301,WEB
12096829-101002460361,Intersection 2000 BRANARD ST&4000 MCDUFFIE ST,,C,NEARTOWN - MONTROSE,,NW,NE,MONDAY,1st Wednesday,Monday-a,492V,Montrose Management District,PWE Public Works Engineering,Street and Drainage,Pothole,ROWM_StreetMain,18.0,Closed,2017-01-14 10:45:41,2017-01-19 08:00:00,2017-01-17 11:15:04,-1.86,Pothole,,,,,WEB
12096863-101002460450,"2701 W BELLFORT, HOUSTON TX 77054",HARRIS,K,SOUTH MAIN,1155170000005,,,,,,532U,,PWE Public Works Engineering,Street and Drainage,Pothole,ROWM_StreetMain,18.0,Closed,2017-01-14 12:38:08,2017-01-19 08:00:00,2017-01-23 16:05:04,4.34,Pothole - 171535,3104687.93108,13809625.490460003,29.67248511,-95.4210229,WAP
12096875-101002460479,Intersection 6900 DEL RIO ST&3400 YELLOWSTONE BLVD,,D,GREATER OST / SOUTH UNION,,SE,SE,TUESDAY,3rd Tuesday,,533L,,PWE Public Works Engineering,Street and Drainage,Pothole,ROWM_StreetMain,18.0,Closed,2017-01-14 13:20:28,2017-01-19 08:00:00,2017-01-17 14:40:05,-1.72,Pothole-101002460479,3120197.20631,13818716.609459998,,,Voice In
12096884-101002460501,"6202 SKYLINE, HOUSTON TX 77057",HARRIS,J,MID WEST,1142180030002,,,,,,491W,,PWE Public Works Engineering,Street and Drainage,Pothole,ROWM_StreetMain,18.0,Closed,2017-01-14 13:58:09,2017-01-19 08:00:00,2017-01-17 10:10:04,-1.91,Pothole - 171543,3082192.94267,13829308.932940003,29.72874592,-95.49026891,WAP
12096885-101002460503,"6222 SKYLINE, HOUSTON TX 77057",HARRIS,J,MID WEST,1251230030011,,,,,,491W,,PWE Public Works Engineering,Street and Drainage,Pothole,ROWM_StreetMain,18.0,Closed,2017-01-14 14:00:17,2017-01-19 08:00:00,2017-01-17 10:45:04,-1.89,Pothole - 171544,3082081.03407,13829163.32723,29.72881761,-95.49157931,WAP
12096888-101002460507,"11105 BELLAIRE, HOUSTON TX 77072",HARRIS,F,ALIEF,0111380000157,,,,,,529F,International MD,PWE Public Works Engineering,Street and Drainage,Pothole,ROWM_StreetMain,18.0,Closed,2017-01-14 14:06:08,2017-01-19 08:00:00,2017-02-07 09:40:03,19.07,Pothole - 171545,3056038.61634,13819368.435420003,29.70342834,-95.57383936,WAP
12096894-101002460516,"8800 BRAESWOOD, HOUSTON TX 77031",,J,BRAYS OAKS,,,,,,,530T,HCID #5 (Brays Oaks),PWE Public Works Engineering,Street and Drainage,Pothole,ROWM_StreetMain,18.0,Closed,2017-01-14 14:24:07,2017-01-19 08:00:00,2017-01-25 10:40:06,6.11,Pothole - 171547,3069630.81928,13808133.032579998,29.67258109,-95.53298669,WAP
12096903-101002460538,"7403 MCHENRY, HOUSTON TX 77087",HARRIS,I,GOLFCREST / BELLFORT / REVEILLE,0720320130001,SE,SE,TUESDAY,3rd Wednesday,TUESDAY-A,535N,,PWE Public Works Engineering,Street and Drainage,Pothole,ROWM_StreetMain,18.0,Closed,2017-01-14 15:13:02,2017-01-19 08:00:00,2017-01-25 14:40:05,6.28,Pothole-101002460538,3144671.19771,13817210.682019997,29.69041575,-95.2948573,Voice In
12096905-101002460544,Intersection 4950 EVERGREEN DR&7390 FAIRWAY DR,Harris County,I,GOLFCREST / BELLFORT / REVEILLE,,SE,SE,TUESDAY,3rd Wednesday,TUESDAY-A,535N,,PWE Public Works Engineering,Street and Drainage,Pothole,ROWM_StreetMain,18.0,Closed,2017-01-14 15:15:55,2017-01-19 08:00:00,2017-01-23 16:00:04,4.33,Pothole-101002460544,3144298.82444,13817225.43757,29.69048874,-95.29602809,Voice In
101002460583,Intersection 7400 W GREENS RD&8200 MILLS RD,,A,WILLOWBROOK,,,,,,,370N,,PWE Public Works Engineering,Street and Drainage,Pothole,ROWM_StreetMain,18.0,Closed,2017-01-14 16:20:03,2017-01-19 08:00:00,2017-01-14 16:20:10,-4.65,Pothole,,,,,WEB
12096924-101002460590,Intersection 11000 BRIAR FOREST DR&1900 LAKESIDE ESTATES DR,Harris County,G,BRIAR FOREST,,,,,,,489Q,,PWE Public Works Engineering,Street and Drainage,Pothole,ROWM_StreetMain,18.0,Closed,2017-01-14 16:27:23,2017-01-19 08:00:00,2017-01-17 12:05:04,-1.83,Pothole-101002460590,3056880.55046,13835350.73728,29.74764243,-95.56957243,Voice In
12096964-101002460712,Intersection 7400 DIXIE DR&5800 TELEPHONE RD,Harris County,I,GOLFCREST / BELLFORT / REVEILLE,,SE,SE,TUESDAY,3rd Wednesday,TUESDAY-A,535S,HCID #9,PWE Public Works Engineering,Street and Drainage,Pothole,ROWM_StreetMain,18.0,Closed,2017-01-15 06:01:18,2017-01-19 08:00:00,2017-01-17 12:15:04,-1.82,Pothole-101002460712,3145078.45313,13813961.74036,29.68144996,-95.29389946,Voice In
12097055-101002460901,Intersection 4800 CALHOUN RD&4500 UNIVERSITY DR,Harris County,D,GREATER THIRD WARD,,,,,,,534A,Greater Southeast MD,PWE Public Works Engineering,Street and Drainage,Pothole,ROWM_StreetMain,18.0,Closed,2017-01-15 17:49:35,2017-01-19 08:00:00,2017-01-17 11:35:04,-1.85,Pothole-101002460901,3130326.64668,13827155.20281,29.71899221,-95.33903511,Voice In
12097060-101002460912,Intersection 5100 EVERGREEN ST&7500 S RICE AVE,Harris County,,,,,,,,,531L,,PWE Public Works Engineering,Street and Drainage,Pothole,ROWM_StreetMain,18.0,Closed,2017-01-15 18:31:03,2017-01-19 08:00:00,2017-01-17 15:20:04,-1.69,Pothole,,,29.69843094,-95.46781932,Unknown
12097076-101002460968,"1500 ERNESTINE, HOUSTON TX 77023",HARRIS,I,GREATER EASTWOOD,0130550000011,SE,SE,MONDAY,1st Friday,MONDAY-A,494X,East End MD,PWE Public Works Engineering,Street and Drainage,Pothole,ROWM_StreetMain,18.0,Closed,2017-01-16 03:20:20,2017-01-19 08:00:00,2017-01-17 09:55:05,-1.92,Pothole - 171526,3131893.447,13833551.666060003,29.73646354,-95.33382443,WAP
12097077-101002460977,"15115 WESTHEIMER, HOUSTON TX 77082",HARRIS,F,ELDRIDGE / WEST OAKS,1235220010001,,,,,,487V,,PWE Public Works Engineering,Street and Drainage,Pothole,ROWM_StreetMain,18.0,Closed,2017-01-16 05:46:04,2017-01-19 08:00:00,2017-01-26 11:15:06,7.14,Pothole - 171663,3030548.86253,13829133.48649,29.73286331,-95.65278657,WAP
12097109-101002461068,Intersection 5000 WESLAYAN ST&4000 WESTPARK DR,Harris County,C,GREENWAY / UPPER KIRBY AREA,,,,,,,492W,,PWE Public Works Engineering,Street and Drainage,Pothole,ROWM_StreetMain,18.0,Closed,2017-01-16 09:28:39,2017-01-19 08:00:00,2017-01-17 14:25:04,-1.73,Pothole,,,29.72775086,-95.44137573,WEB
12097111-101002461072,Intersection 11300 WESTPARK DR&3800 WILCREST DR,,F,WESTCHASE,,,,,,,529C,Westchase MD,PWE Public Works Engineering,Street and Drainage,Pothole,ROWM_StreetMain,18.0,Closed,2017-01-16 09:30:21,2017-01-19 08:00:00,2017-01-17 12:00:04,-1.83,Pothole-101002461072,3056560.20825,13825461.989340002,,,Voice In
101002461099,Intersection 11000 BRIAR FOREST DR&1900 LAKESIDE ESTATES DR,Harris County,G,BRIAR FOREST,,,,,,,489Q,,PWE Public Works Engineering,Street and Drainage,Pothole,ROWM_StreetMain,18.0,Closed,2017-01-16 09:46:37,2017-01-19 08:00:00,2017-01-16 09:46:51,-2.93,Pothole,,,29.74764243,-95.56957243,WEB
12097128-101002461112,Intersection 3900 HOLMES RD&7700 SCOTT ST,Harris County,D,SUNNYSIDE,,SE,SE,FRIDAY,,FRIDAY-A,533U,HCID #10-A,PWE Public Works Engineering,Street and Drainage,Pothole,ROWM_StreetMain,18.0,Closed,2017-01-16 09:53:35,2017-01-19 08:00:00,2017-01-25 10:10:06,6.09,Pothole-101002461112,3121865.19444,13812454.59147,29.67930991,-95.36711874,Voice In
12097148-101002461168,"6034 VICTORY, HOUSTON TX 77088",HARRIS,A,GREATER INWOOD,0991100000060,NW,NW,TUESDAY,4th Monday,TUESDAY-B,411T,Near Northwest MD,PWE Public Works Engineering,Street and Drainage,Pothole,ROWM_StreetMain,18.0,Closed,2017-01-16 10:54:09,2017-01-19 08:00:00,2017-01-17 10:10:04,-1.91,Pothole - 171692,3084237.93757,13879090.466259997,29.86590673,-95.47944245,WAP
12097154-101002461188,"4018 LEMON TREE, HOUSTON TX 77088",HARRIS,A,GREATER INWOOD,1044860000012,NW,NW,TUESDAY,4th Monday,TUESDAY-B,411U,Near Northwest MD,PWE Public Works Engineering,Street and Drainage,Pothole,ROWM_StreetMain,18.0,Closed,2017-01-16 11:08:07,2017-01-19 08:00:00,2017-01-17 09:40:04,-1.93,Pothole - 171695,3089168.64006,13881640.93,29.8724842,-95.46354429,WAP
12097162-101002461212,"6050 VICTORY, HOUSTON TX 77088",HARRIS,A,GREATER INWOOD,0991100000064,,,,,,411T,Near Northwest MD,PWE Public Works Engineering,Street and Drainage,Pothole,ROWM_StreetMain,18.0,Closed,2017-01-16 11:34:11,2017-01-19 08:00:00,2017-01-17 10:25:04,-1.9,Pothole - 171704,3084001.18164,13879109.52756,29.86601434,-95.47998098,WAP
101002461214,"6034 VICTORY, HOUSTON TX 77088",HARRIS,A,GREATER INWOOD,0991100000060,NW,NW,TUESDAY,4th Monday,TUESDAY-B,411T,Near Northwest MD,PWE Public Works Engineering,Street and Drainage,Pothole,ROWM_StreetMain,18.0,Closed,2017-01-16 11:34:13,2017-01-19 08:00:00,2017-01-16 11:34:27,-2.85,Pothole - 171703,3084218.87321,13879101.53496,29.86590673,-95.47944245,WAP
12097163-101002461215,"6060 VICTORY, HOUSTON TX 77088",HARRIS,A,GREATER INWOOD,0991100000064,,,,,,411T,Near Northwest MD,PWE Public Works Engineering,Street and Drainage,Pothole,ROWM_StreetMain,18.0,Closed,2017-01-16 11:34:18,2017-01-19 08:00:00,2017-01-17 10:45:04,-1.89,Pothole - 171702,3083923.42884,13879090.711420003,29.86603619,-95.48021181,WAP
12097204-101002461329,"4903 CHEENA, HOUSTON TX 77096",HARRIS,C,MEYERLAND AREA,0902800010012,SW,SE,TUESDAY,2nd Wednesday,TUESDAY-B,531U,,PWE Public Works Engineering,Street and Drainage,Pothole,ROWM_StreetMain,18.0,Closed,2017-01-16 13:48:11,2017-01-19 08:00:00,2017-01-25 11:35:05,6.15,Pothole - 171728,3091917.52857,13808721.58309,29.67196592,-95.46185545,WAP
12097247-101002461443,Intersection 6300 BELLAIRE BLVD&6900 HILLCROFT AVE,Harris County,J,GULFTON,,,,,,,531E,Sharpstown MD,PWE Public Works Engineering,Street and Drainage,Pothole,ROWM_StreetMain,18.0,Closed,2017-01-16 16:29:26,2017-01-19 08:00:00,2017-01-25 10:40:06,6.11,Pothole-101002461443,3081611.91406,13820735.94728,29.70545205,-95.49304963,Voice In
12097285-101002461557,"1610 SUNNYLAND, HOUSTON TX 77023",HARRIS,I,LAWNDALE / WAYSIDE,0600610040013,SE,SE,MONDAY,1st Wednesday,MONDAY-A,534C,East End MD,PWE Public Works Engineering,Street and Drainage,Pothole,ROWM_StreetMain,18.0,Closed,2017-01-16 21:19:17,2017-01-19 08:00:00,2017-01-17 14:55:08,-1.71,Pothole,,,29.72380013,-95.31641808,WEB
12097306-101002461667,"5880 KELLEY, HOUSTON TX 77026",HARRIS,B,KASHMERE GARDENS,0402640010050,,,,,,454V,,PWE Public Works Engineering,Street and Drainage,Pothole,ROWM_StreetMain,18.0,Closed,2017-01-17 08:02:37,2017-01-19 08:02:37,2017-01-25 14:50:05,6.28,Pothole - 171888,3139225.4584,13860688.558380002,29.81096452,-95.30933707,WAP
12097308-101002461675,"1615 S KIRKWOOD, HOUSTON TX 77077",HARRIS,G,BRIAR FOREST,1086240010184,,,,,,489N,,PWE Public Works Engineering,Street and Drainage,Pothole,ROWM_StreetMain,18.0,Closed,2017-01-17 08:02:54,2017-01-19 08:02:54,2017-01-18 10:50:05,-0.88,Pothole - 171901,3051704.09856,13837064.46144,29.75288205,-95.58543857,WAP
12097318-101002461705,"1408 WOODHEAD, HOUSTON TX 77019",HARRIS,C,NEARTOWN - MONTROSE,0442250000120,NW,NE,MONDAY,1st Wednesday,MONDAY-A,492R,Montrose Management District,PWE Public Works Engineering,Street and Drainage,Pothole,ROWM_StreetMain,18.0,Closed,2017-01-17 08:20:18,2017-01-19 08:20:17,2017-01-18 12:30:05,-0.83,Pothole - 171944,3109093.04573,13838907.793539997,29.75292548,-95.40487169,WAP
12097333-101002461764,"2500 MACGREGOR, HOUSTON TX 77004",HARRIS,D,MACGREGOR,1307020010002,,,,,,533F,Greater Southeast MD,PWE Public Works Engineering,Street and Drainage,Pothole,ROWM_StreetMain,18.0,Closed,2017-01-17 08:50:55,2017-01-19 08:50:55,2017-01-18 09:45:06,-0.96,Pothole,,,29.714176,-95.37666594,WEB
12097345-101002461830,"3511 BREWSTER, HOUSTON TX 77026",HARRIS,B,KASHMERE GARDENS,0121700000013,NE,NW,FRIDAY,1st Thursday,FRIDAY-B,454W,,PWE Public Works Engineering,Street and Drainage,Pothole,ROWM_StreetMain,18.0,Closed,2017-01-17 09:20:38,2017-01-19 09:20:38,2017-01-18 11:15:06,-0.92,Pothole-101002461830,3129853.88614,13855135.52153,29.79594133,-95.33776384,Voice In
12097377-101002461946,Intersection 3800 CENTER ST&76 YALE ST,Harris County,C,WASHINGTON AVENUE COALITION / MEMORIAL P,,,,,,,492H,,PWE Public Works Engineering,Street and Drainage,Pothole,ROWM_StreetMain,18.0,Closed,2017-01-17 10:12:57,2017-01-19 10:12:57,2017-01-18 12:00:06,-0.93,Pothole-101002461946,3110855.71318,13845295.78661,29.77051737,-95.39859006,Voice In
12097394-101002462028,"6699 CHIMNEY ROCK, HOUSTON TX 77081",HARRIS,J,GULFTON,0370550160034,,,,,,531F,,PWE Public Works Engineering,Street and Drainage,Pothole,ROWM_StreetMain,18.0,Closed,2017-01-17 10:42:08,2017-01-19 10:42:07,2017-01-25 14:50:06,6.17,Pothole - 172000,3086875.78748,13821776.83297,29.70800677,-95.47579817,WAP
12097444-101002462247,"12922 LEITRIM, HOUSTON TX 77047",HARRIS,D,SOUTH ACRES / CRESTMONT PARK,0791560100004,SE,SE,FRIDAY,4th Friday,FRIDAY-B,573Q,Five Corners HCID #10B,PWE Public Works Engineering,Street and Drainage,Pothole,ROWM_StreetMain,18.0,Closed,2017-01-17 12:08:11,2017-01-19 12:08:11,2017-01-18 11:30:06,-1.03,Pothole - 172045,3123859.47352,13791671.45319,29.62202096,-95.36317582,WAP
12097518-101002462513,"230 N ST CHARLES, HOUSTON TX 77003",HARRIS,H,SECOND WARD,0151250000002,SE,SE,MONDAY,1st Friday,MONDAY-A,494N,East End MD,PWE Public Works Engineering,Street and Drainage,Pothole,ROWM_StreetMain,18.0,Closed,2017-01-17 14:06:04,2017-01-19 14:06:04,2017-01-27 14:05:06,8.0,Pothole - 172078,3128257.05531,13841322.49965,29.75797533,-95.34416353,WAP
12097538-101002462598,Intersection 5300 ENNIS ST&3000 OAKDALE ST,Harris County,D,MACGREGOR,,SE,SW,TUESDAY,3rd Friday,TUESDAY-A,533C,Greater Southeast MD,PWE Public Works Engineering,Street and Drainage,Pothole,ROWM_StreetMain,18.0,Closed,2017-01-17 14:42:46,2017-01-19 14:42:46,2017-01-18 10:30:05,-1.18,Pothole,,,29.71759787,-95.37077336,Unknown
12097545-101002462620,"605 E FRIAR TUCK, HOUSTON TX 77024",HARRIS,G,GREATER UPTOWN,0720670000030,,,,,,491G,,PWE Public Works Engineering,Street and Drainage,Pothole,ROWM_StreetMain,18.0,Closed,2017-01-17 14:52:42,2017-01-19 14:52:42,2017-01-18 10:45:05,-1.17,Pothole-101002462620,3088116.35708,13847175.66179,29.77759087,-95.47005574,Voice In
12097566-101002462735,Intersection 600 FIR RIDGE DR&24600 E LAKE HOUSTON PKWY,Harris County,E,LAKE HOUSTON,,,,,,,338M,,PWE Public Works Engineering,Street and Drainage,Pothole,ROWM_StreetMain,18.0,Closed,2017-01-17 15:33:06,2017-01-19 15:33:06,2017-01-18 10:55:05,-1.19,Pothole-101002462735,3198791.84046,13941682.630259998,30.02769286,-95.11145783,Voice In
12097588-101002462822,"8320 LENORE, HOUSTON TX 77017",HARRIS,I,MEADOWBROOK / ALLENDALE,0591810070009,SE,SE,MONDAY,1st Monday,MONDAY-B,535V,,PWE Public Works Engineering,Street and Drainage,Pothole,ROWM_StreetMain,18.0,Closed,2017-01-17 16:01:11,2017-01-19 16:01:11,2017-01-25 15:27:28,5.98,Pothole-101002462822,3156669.06808,13814004.85904,29.68055358,-95.25741067,Voice In
12097611-101002462915,"2411 YOAKUM, HOUSTON TX 77006",HARRIS,C,NEARTOWN - MONTROSE,0180120000009,NW,NE,MONDAY,1st Wednesday,MONDAY-A,493N,Montrose Management District,PWE Public Works Engineering,Street and Drainage,Pothole,ROWM_StreetMain,18.0,Closed,2017-01-17 16:42:43,2017-01-19 16:42:43,2017-01-18 10:10:05,-1.27,Pothole,,,29.74759723,-95.3926078,Unknown
101002462958,Intersection 1600 FAIRVIEW AVE&1598 FAIRVIEW ST&2400 YUPON ST,,C,NEARTOWN - MONTROSE,,,,,,Monday-a,492V,Montrose Management District,PWE Public Works Engineering,Street and Drainage,Pothole,ROWM_StreetMain,18.0,Closed,2017-01-17 17:06:27,2017-01-20 08:00:00,2017-01-18 08:14:39,-1.99,Pothole,,,,,Voice In
12097628-101002462962,Intersection 1200 FAIRVIEW AVE&2400 YOAKUM BLVD,Harris County,C,NEARTOWN - MONTROSE,,NW,NE,MONDAY,1st Wednesday,MONDAY-A,493N,Montrose Management District,PWE Public Works Engineering,Street and Drainage,Pothole,ROWM_StreetMain,18.0,Closed,2017-01-17 17:08:14,2017-01-20 08:00:00,2017-01-18 11:10:05,-1.87,Pothole-101002462962,3112948.34449,13837197.18175,29.74807939,-95.39278423,Voice In
12097668-101002463177,Intersection 12510 W BELLFORT AVE&11000 MAYKIRK ST,Fort Bend County,F,ALIEF,,,,,,,528Z,,PWE Public Works Engineering,Street and Drainage,Pothole,ROWM_StreetMain,18.0,Closed,2017-01-17 21:38:37,2017-01-20 08:00:00,2017-01-25 12:05:04,5.17,Pothole,,,29.66080084,-95.60126505,WEB
12097670-101002463180,Intersection 12250 W BELLFORT AVE&11600 BLAIR MEADOW DR,Harris County,F,ALIEF,,SW,SW,MONDAY,1st Tuesday,MONDAY-B,529W,,PWE Public Works Engineering,Street and Drainage,Pothole,ROWM_StreetMain,18.0,Closed,2017-01-17 21:40:47,2017-01-20 08:00:00,2017-01-18 10:30:05,-1.9,Pothole,,,29.65896428,-95.5920868,Unknown
12097671-101002463181,Intersection 2700 BARRINGTON PLACE DR&13000 W BELLFORT AVE&10700 HUNTINGTON ESTATES D,Fort Bend County,F,ALIEF,,,,,,,528Y,,PWE Public Works Engineering,Street and Drainage,Pothole,ROWM_StreetMain,18.0,Closed,2017-01-17 21:42:35,2017-01-20 08:00:00,2017-01-18 10:55:05,-1.88,Pothole,,,29.66148191,-95.6116868,Unknown
12097672-101002463183,Intersection 3600 FOUNTAIN VIEW DR&0 SOUTHWEST FWY,,J,GULFTON,,,,,,,491X,,PWE Public Works Engineering,Street and Drainage,Pothole,ROWM_StreetMain,18.0,Closed,2017-01-17 21:46:14,2017-01-20 08:00:00,2017-01-18 11:45:05,-1.84,Pothole,,,,,Unknown
12097812-101002463391,"809 PEASE, HOUSTON TX 77002",HARRIS,I,DOWNTOWN,0020700000003,,,,,,493Q,Houston Downtown,PWE Public Works Engineering,Street and Drainage,Pothole,ROWM_StreetMain,18.0,Closed,2017-01-18 07:40:22,2017-01-19 16:40:22,2017-01-26 15:05:12,6.93,Pothole - 172244,3120039.66393,13839034.02477,29.75264971,-95.370026,WAP
12097843-101002463449,"6837 LANGDON, HOUSTON TX 77074",HARRIS,J,SHARPSTOWN,0834200000001,SW,SW,TUESDAY,2nd Tuesday,TUESDAY-B,530M,Sharpstown MD,PWE Public Works Engineering,Street and Drainage,Pothole,ROWM_StreetMain,18.0,Closed,2017-01-18 08:06:07,2017-01-20 08:06:07,2017-01-18 12:40:05,-1.81,Pothole - 172265,3077895.08296,13816483.119459998,29.69387677,-95.50504131,WAP
12098081-101002463993,"808 SLEDGE, HOUSTON TX 77009",HARRIS,H,GREATER HEIGHTS,0611920190003,NW,NW,THURSDAY,3rd Wednesday,THURSDAY-A,493B,Greater Northside MD,PWE Public Works Engineering,Street and Drainage,Pothole,ROWM_StreetMain,18.0,Closed,2017-01-18 11:15:26,2017-01-20 11:15:26,2017-01-18 13:55:05,-1.89,Pothole,,,29.78126277,-95.38118439,WEB
12098083-101002463998,"824 SLEDGE, HOUSTON TX 77009",HARRIS,H,GREATER HEIGHTS,0611920190006,NW,NW,THURSDAY,3rd Wednesday,THURSDAY-A,493B,Greater Northside MD,PWE Public Works Engineering,Street and Drainage,Pothole,ROWM_StreetMain,18.0,Closed,2017-01-18 11:16:57,2017-01-20 11:16:57,2017-01-26 14:15:06,6.12,Pothole,,,29.78126183,-95.38165919,WEB
12098133-101002464125,"7703 HEMLOCK, HOUSTON TX 77012",HARRIS,I,PECAN PARK,0760770020028,SE,SE,MONDAY,1st Tuesday,MONDAY-B,535F,East End MD,PWE Public Works Engineering,Street and Drainage,Pothole,ROWM_StreetMain,18.0,Closed,2017-01-18 11:58:30,2017-01-20 11:56:00,2017-02-14 15:45:08,25.16,Pothole-101002464125,3148057.04166,13825016.40099,29.71157567,-95.28341731,e-mail In
12098172-101002464222,"16247 KNOLLRIDGE, HOUSTON TX 77053",FORT BEND,K,FORT BEND HOUSTON,6200030150480907,SW,SW,FRIDAY,4th Wednesday,FRIDAY-A,611B,,PWE Public Works Engineering,Street and Drainage,Pothole,ROWM_StreetMain,18.0,Closed,2017-01-18 12:26:54,2017-01-20 12:26:54,2017-02-02 14:40:06,13.09,Pothole,,,29.59060264,-95.4816457,WEB
12098178-101002464233,"5037 MALMEDY, HOUSTON TX 77033",HARRIS,D,SOUTH PARK,0751900020030,SE,SE,FRIDAY,4th Thursday,FRIDAY-A,534N,HCID #10-A,PWE Public Works Engineering,Street and Drainage,Pothole,ROWM_StreetMain,18.0,Closed,2017-01-18 12:32:05,2017-01-20 12:32:05,2017-01-19 13:10:06,-0.97,Pothole - 172389,3129162.13357,13814329.0896,29.68396429,-95.34418165,WAP
101002464608,"4903 CHEENA, HOUSTON TX 77096",HARRIS,C,MEYERLAND AREA,0902800010012,SW,SE,TUESDAY,2nd Wednesday,TUESDAY-B,531U,,PWE Public Works Engineering,Street and Drainage,Pothole,ROWM_StreetMain,18.0,Closed,2017-01-18 14:26:11,2017-01-20 14:26:11,2017-01-18 14:26:21,-2.0,Pothole - 172461,3091921.47299,13808744.92461,29.67196592,-95.46185545,WAP
12098306-101002464670,"2730 BERNADETTE, HOUSTON TX 77043",HARRIS,A,SPRING BRANCH NORTH,1013880000012,NW,NW,FRIDAY,4th Friday,FRIDAY-A,449M,Spring Branch MD,PWE Public Works Engineering,Street and Drainage,Pothole,ROWM_StreetMain,18.0,Closed,2017-01-18 14:49:05,2017-01-20 14:49:05,2017-01-19 10:45:06,-1.17,Pothole-101002464670,3062301.60885,13862698.54249,29.82237755,-95.54995381,Voice In
